{
  "Sheet1": [
    {
      "name": "Riya Autolink, Bodakdev",
      "state": "Gujarat",
      "city": "Ahmedabad",
      "address": "Near Rajpath Club,SG Highway,Ahmedabad,Gujarat-380054",
      "lattitude": 23.03577,
      "longitude": 72.51,
      "type": 7
    },
    {
      "name": "Ginger, Vastrapur",
      "state": "Gujarat",
      "city": "Ahmedabad",
      "address": "Behind Himalaya Mall, Drive In Road, Ahmedabad - 380015",
      "lattitude": 23.04626,
      "longitude": 72.53069,
      "type": 7
    },
    {
      "name": "Westside, Ellisbridge",
      "state": "Gujarat",
      "city": "Ahmedabad",
      "address": "Ground Floor, Abhijeet V, Netaji Rd Ellisbridge Opp. Mayor Bungalow, Ellisbridge, Ahmedabad, Gujarat 380006,+91 79 6661 0190",
      "lattitude": 23.02938,
      "longitude": 72.56142,
      "type": 7
    },
    {
      "name": "Adishakti - Veeranpalya",
      "state": "Karnataka",
      "city": "Bangalore",
      "address": "#56, Opposite Lumbini Gardens, Veeranna Palya Ring Road , Veeranna Palya, Arabic College Post, Bengaluru, Karnataka - 560045",
      "lattitude": 13.04279,
      "longitude": 77.6093,
      "type": 7
    },
    {
      "name": "PRERANA MOTORS - RAJAJINAGAR",
      "state": "Karnataka",
      "city": "Bangalore",
      "address": "No.46, 10th Cross Rd, West of Chord Road 2nd Stage, West of Chord Road, IInd Stage, Basaveshwar Nagar, Bengaluru, Karnataka 560079",
      "lattitude": 12.99929,
      "longitude": 77.54963,
      "type": 7
    },
    {
      "name": "KEY MOTOR VENTURES - Kanakapura",
      "state": "Karnataka",
      "city": "Bangalore",
      "address": "No 71/1A & 71/7, Jaraganahalli Village Opp Temple Tree Apartment, Kanakapura Rd, Manjunath Garden, JP Nagar Phase 6, J. P. Nagar, Bengaluru, Karnataka 560078",
      "lattitude": 12.90392,
      "longitude": 77.57349,
      "type": 7
    },
    {
      "name": "Ginger, Whitefield",
      "state": "Karnataka",
      "city": "Bangalore",
      "address": "128, EPIP Phase II, &, SAP Labs Rd, Opp. KTPO, EPIP Zone, Whitefield, Bengaluru, Karnataka 560066",
      "lattitude": 12.97692,
      "longitude": 77.71861,
      "type": 7
    },
    {
      "name": "Ginger, Koramangala IRR",
      "state": "Karnataka",
      "city": "Bangalore",
      "address": "Inner Ring Road, Opp. Maruthi Infotech Koramangala, 100 Feet Rd, Krishna Reddy Layout, Amarjyoti Layout, Domlur, Bengaluru, Karnataka 560071",
      "lattitude": 12.95234,
      "longitude": 77.63997,
      "type": 7
    },
    {
      "name": "Prerna Motors, Kudlugate",
      "state": "Karnataka",
      "city": "Bangalore",
      "address": "NO.55, HOSUR MAIN ROAD, KUDLUGATE, HONGASANDRA, NEXT TO OZONE TECH PARK, Kudlu Gate, Garebhavipalya, Garvebhavi Palya, Bengaluru, Karnataka 560068",
      "lattitude": 12.89083,
      "longitude": 77.63821,
      "type": 7
    },
    {
      "name": "LAKSHMI Motors - Thoraipakkam",
      "state": "Tamil Nadu",
      "city": "Chennai",
      "address": "118, Okkiam, Thoraipakkam, Chennai, Tamil Nadu - 600097",
      "lattitude": 12.92976,
      "longitude": 80.23164,
      "type": 7
    },
    {
      "name": "Ginger Hotel, Vadapalani",
      "state": "Tamil Nadu",
      "city": "Chennai",
      "address": "61, Inner Ring Rd, Thiru Nagar Colony, NGO Colony, Vadapalani, Chennai, Tamil Nadu 600026",
      "lattitude": 13.05647,
      "longitude": 80.21116,
      "type": 7
    },
    {
      "name": "Tejaswi Motors - Madhapur",
      "state": "Telangana",
      "city": "Hyderabad",
      "address": "Plot No. 4/14, Opp. Cyber Towers, KPHB Road, Madhapur, Hyderabad, Telangana - 500081",
      "lattitude": 17.45345,
      "longitude": 78.38334,
      "type": 7
    },
    {
      "name": "Venkataramana Motors, ECIL",
      "state": "Telangana",
      "city": "Hyderabad",
      "address": "Plot No 11, Victory Plaza, ECIL X Roads, Hyderabad, Telangana - 500062",
      "lattitude": 17.48081,
      "longitude": 78.57715,
      "type": 7
    },
    {
      "name": "Select Cars, Sanath Nagar",
      "state": "Telangana",
      "city": "Hyderabad",
      "address": "B-51, APIIC Rd, IDA Kukatpally, Sanath Nagar, Hyderabad, Telangana 500018",
      "lattitude": 17.45608,
      "longitude": 78.44656,
      "type": 7
    },
    {
      "name": "Westside, Somajiguda",
      "state": "Telangana",
      "city": "Hyderabad",
      "address": "PLOT NO.6-3, Kmc Retail Mall, CIRCLE, 1112, near KIRTILAL JEWELLERS, Somajiguda, Hyderabad, Telangana 500082",
      "lattitude": 17.4226,
      "longitude": 78.46136,
      "type": 7
    },
    {
      "name": "Select Cars, Alkapuri",
      "state": "Telangana",
      "city": "Hyderabad",
      "address": "ALKAPURI X ROADS, Nagole, Hyderabad, Telangana 500068",
      "lattitude": 17.3649,
      "longitude": 78.55747,
      "type": 7
    },
    {
      "name": "Fortune Cars (S & SC) - Navi Mumbai, Nerul",
      "state": "Maharashtra",
      "city": "Navi Mumbai",
      "address": "Plot No. D-400, TTC Industrial Area, MIDC, Near Uran Phata Signal, Nerul, Navi Mumbai, Maharashtra - 400 706",
      "lattitude": 19.05021,
      "longitude": 73.02105,
      "type": 7
    },
    {
      "name": "Ginger Mumbai (Andheri East)",
      "state": "Maharashtra",
      "city": "Mumbai",
      "address": "Teli - Gali Road, Andheri (East), Mumbai - 400069",
      "lattitude": 19.11599,
      "longitude": 72.85018,
      "type": 7
    },
    {
      "name": "Tata Power Versova",
      "state": "Maharashtra",
      "city": "Mumbai",
      "address": "KL Walawalkar Marg, Sahayog Nagar, Bhudargarh Colony, Andheri West, Mumbai, Maharashtra 400102",
      "lattitude": 19.13052,
      "longitude": 72.83056,
      "type": 7
    },
    {
      "name": "Inderjit Cars - Andheri",
      "state": "Maharashtra",
      "city": "Mumbai",
      "address": "1059/1060, Adarsh nagar, near infinity mall, Off New Link Road, Andheri West, Mumbai, Maharashtra 400053",
      "lattitude": 19.14207,
      "longitude": 72.83241,
      "type": 7
    },
    {
      "name": "Heritage Vehicle Pvt. Ltd, Thane",
      "state": "Maharashtra",
      "city": "Thane",
      "address": "3/4, Meena Apartment, Panchpakhadi, Eastern Exp Highway, Thane West u2013 Pokran Upvan, Thane - 400606",
      "lattitude": 19.1972,
      "longitude": 72.96321,
      "type": 7
    },
    {
      "name": "Tata Power Vikhroli",
      "state": "Maharashtra",
      "city": "Mumbai",
      "address": "The Tata Power Company Limited, 400 kV Project, Vikhroli Sub Station, Godrej Soap Premises, Vikhroli (East), Mumbai 400079",
      "lattitude": 19.095269,
      "longitude": 72.926195,
      "type": 7
    },
    {
      "name": "GO AUTO/ Treo Tata (3S) - Safdargunj",
      "state": "Delhi",
      "city": "Delhi",
      "address": "A-2/14, Safdarjung Enclave, , Delhi, Delhi - 110029",
      "lattitude": 28.56483,
      "longitude": 77.18891,
      "type": 7
    },
    {
      "name": "SAB Motors- Patel Nagar",
      "state": "Uttar Pradesh",
      "city": "Ghaziabad",
      "address": "G-94, Patel Nagar - III, Ghaziabad, Uttar Pradesh - 201 001",
      "lattitude": 28.67458,
      "longitude": 77.42895,
      "type": 7
    },
    {
      "name": "Autovikas - Motinagar",
      "state": "Delhi",
      "city": "Delhi",
      "address": "Block B, No. 57, Rama Rd, Moti Nagar, Block B, Najafgarh Road Industrial Area, New Delhi, Delhi 110015",
      "lattitude": 28.66078,
      "longitude": 77.1536,
      "type": 7
    },
    {
      "name": "Multitech Motors, Sec 27 Faridabad",
      "state": "Haryana",
      "city": "Faridabad",
      "address": "Sector 19, Faridabad, Haryana 121002",
      "lattitude": 28.41873,
      "longitude": 77.31114,
      "type": 7
    },
    {
      "name": "Sparsh (3S) - Dwarka, Garg Plaza",
      "state": "Delhi",
      "city": "Delhi",
      "address": "RZ A- 70, Garg Plaza, Dabri - Palam Road, Dwarka, Delhi, Delhi - 110043",
      "lattitude": 28.60585,
      "longitude": 77.08133,
      "type": 7
    },
    {
      "name": "Westside, Lajpat Nagar",
      "state": "Delhi",
      "city": "Delhi",
      "address": "A-15, Alankar Cinema Building, Feroze Gandhi Marg, Lajpat Nagar III, New Delhi 110024",
      "lattitude": 28.56817,
      "longitude": 77.24112,
      "type": 7
    },
    {
      "name": "Rudra Motors, Wagholi",
      "state": "Maharashtra",
      "city": "Pune",
      "address": "Gat No.1343/A, Near Ubale Nagar Bus Stop, Wagholi-412207",
      "lattitude": 18.57391,
      "longitude": 73.9589,
      "type": 7
    },
    {
      "name": "Bafna-Tathawade (Concorde)",
      "state": "Maharashtra",
      "city": "Pune",
      "address": "Gate No. 129/2B/1, Mumbai Bangalore Express Highway,Ashok Nagar, Tathawade, Pune-411033",
      "lattitude": 18.62343,
      "longitude": 73.74568,
      "type": 7
    },
    {
      "name": "Croma Aundh, Pune",
      "state": "Maharashtra",
      "city": "Pune",
      "address": "Survey No.127/2B/1A Nanasaheb Gaikwad Information Technology Park ITI Road, Near, Sarjaa Rd, Aundh, Pune,411007",
      "lattitude": 18.55368,
      "longitude": 73.80696,
      "type": 7
    },
    {
      "name": "KHT MOTORS - Kundalahalli near Whitefield",
      "state": "Karnataka",
      "city": "Bangalore",
      "address": "No. 736, Vijayalakshmi Square, Kundalahalli Main Road, , Bengaluru, Karnataka - 560 066",
      "lattitude": 12.96684,
      "longitude": 77.71657,
      "type": 7
    },
    {
      "name": "Inderjit Cars - Mira Road",
      "state": "Maharashtra",
      "city": "Thane",
      "address": "Platinum Building, Ground Floor,Opp. Pleasant Park,Next To Brand Factory Showroom,Mira Road-401 107",
      "lattitude": 19.277922,
      "longitude": 72.880256,
      "type": 7
    },
    {
      "name": "IOCL - Breach Candy",
      "state": "Maharashtra",
      "city": "Mumbai",
      "address": "Bhulabhai Desai Road, Breach Candy, near Tata Garden, Mumbai, Maharashtra 400026",
      "lattitude": 18.96555,
      "longitude": 72.80346,
      "type": 7
    },
    {
      "name": "Puneet Prabadevi (Concorde)",
      "state": "Maharashtra",
      "city": "Mumbai",
      "address": "Lloyds Centre Point, Appasaheb Marathe Marg, Dadar West, Prabhadevi, Mumbai, Maharashtra 400025",
      "lattitude": 19.01296,
      "longitude": 72.82652,
      "type": 7
    },
    {
      "name": "SAB Motors- Industrial Area, Loni Road",
      "state": "Uttar Pradesh",
      "city": "Ghaziabad",
      "address": "CF 1-1/1 to 1/5 Harsha Compound, Site II, Loni Road Industrial Area, Mohan Nagar, Ghaziabad, Uttar Pradesh - 201 007",
      "lattitude": 28.683213,
      "longitude": 77.377082,
      "type": 7
    },
    {
      "name": "Croma Attapur, Hyderabad",
      "state": "Telangana",
      "city": "Hyderabad",
      "address": "Sirimalle Square Plot Nos. 8, 9, 10 Survey No. 523/B, Pillar No. 160 Attapur, Rajendranagar mandal, Hyderabad, Telangana 500048.",
      "lattitude": 17.359176,
      "longitude": 78.426285,
      "type": 7
    },
    {
      "name": "Croma Kompally, Hyderabad",
      "state": "Telangana",
      "city": "Hyderabad",
      "address": "Ratna Arcade, Ground Floor Survey No. 128 National Highway 44, Beside, Sree Vensai Towers, Ruby Block, Kompally, Secunderabad, Telangana 500014",
      "lattitude": 17.531882,
      "longitude": 78.485644,
      "type": 7
    },
    {
      "name": "Croma L.B. Nagar, Hyderabad",
      "state": "Telangana",
      "city": "Hyderabad",
      "address": "CROMA, Ground Floor,D.V.Cascade,Plot 59A,59/B,59/C,59/D In Survey 9/9,Saroornagar Village,L.B.Nagar - 500074",
      "lattitude": 17.352657,
      "longitude": 78.546636,
      "type": 7
    },
    {
      "name": "Croma Ramanthapur, Hyderabad",
      "state": "Telangana",
      "city": "Hyderabad",
      "address": "Croma, Unit No. 2 & 3, Ground Floor, Plot Survey No. 46, Pragathi Nagar, Ramanthapur Main Road, Ramanthapur, Telangana, Hyderabad - 500013",
      "lattitude": 17.4003,
      "longitude": 78.54212,
      "type": 7
    },
    {
      "name": "Gurudev Tata Motors (S & SC), Arumbakkam",
      "state": "Tamil Nadu",
      "city": "Chennai",
      "address": "Old No 90, New Number 1090, E.V.R. Periyar High Road, Arumbakkam, Chennai, Tamil Nadu - 600106",
      "lattitude": 13.07656,
      "longitude": 80.2021,
      "type": 7
    },
    {
      "name": "Sagar Motors EV (S) - Surajpur",
      "state": "Uttar Pradesh",
      "city": "Noida",
      "address": "E-36, Site-4, UDSIDC, Surajpur Kasna Road, (Near Pari Chowk), Noida, Uttar Pradesh - 201310",
      "lattitude": 28.45782,
      "longitude": 77.52322,
      "type": 7
    },
    {
      "name": "Society Motors, MACROBERTGANJ",
      "state": "Uttar Pradesh",
      "city": "Kanpur",
      "address": "12/483, Macrobert Ganj, Kanpur, Uttar Pradesh - 208 001",
      "lattitude": 26.482346,
      "longitude": 80.329394,
      "type": 7
    },
    {
      "name": "Sai Baba-THEREGAON",
      "state": "Maharashtra",
      "city": "Pune",
      "address": "5/4, Nakhate Nagar,Kalewadi Main Road,Theregaon,Pune-411033",
      "lattitude": 18.611143,
      "longitude": 73.783103,
      "type": 7
    },
    {
      "name": "Sridha Motors, Chakan, Pune-Nashik Highway",
      "state": "Maharashtra",
      "city": "Pune",
      "address": "GAT NO. 143/3, PUNE-NASHIK HIGHWAY WAKI (KH), Maharashtra 410501",
      "lattitude": 18.77893,
      "longitude": 73.87099,
      "type": 7
    },
    {
      "name": "Riya Autolink - Ambli BRTS Bus Stand",
      "state": "Gujarat",
      "city": "Ahmedabad",
      "address": "Near Devkutir Bunglow, Opp Bopal Ambli BRTS Bus Stand, Iscon-Bopal Road, Ahmedabad, Gujarat - 380058",
      "lattitude": 23.02558,
      "longitude": 72.47991,
      "type": 7
    },
    {
      "name": "Pramukh Auto - Umiya Nagar, Surat",
      "state": "Gujarat",
      "city": "Surat",
      "address": "Plot No. 409/27-A, Umiya Nagar Society,Near Chosath Jogni Mata Temple,Udhna Magdalla Road,Surat-394210",
      "lattitude": 21.164948,
      "longitude": 72.835879,
      "type": 7
    },
    {
      "name": "WELCOME MOTORS",
      "state": "Delhi",
      "city": "Delhi",
      "address": "SAKET DISST. CENTRE SAKET N.DELHI - 110017",
      "lattitude": 28.5279341,
      "longitude": 77.2156347,
      "type": 7
    },
    {
      "name": "Nangia Cars Pvt Ltd",
      "state": "Maharashtra",
      "city": "Nagpur",
      "address": "33B 1/4 Hinghna MIDC Opp Nangia Speciality Hospital Nagpur 440028 ",
      "lattitude": 21.13246,
      "longitude": 79.00401,
      "type": 7
    },
    {
      "name": "CoastLine Garages India Private Limited",
      "state": "Kerala",
      "city": "Kochi",
      "address": "Opposite Metro Pillar no 155 , NH 47, Muttom , Near Aluva , Cochin-683106",
      "lattitude": 10.077281,
      "longitude": 76.337656,
      "type": 7
    },
    {
      "name": "Beeaar Autowheels India Pvt Ltd",
      "state": "Uttar Pradesh",
      "city": "Lucknow",
      "address": "Milestone No.u00a0111, Faizabad Road, Chinhat, Lucknow (UP) 227105",
      "lattitude": 26.872061,
      "longitude": 81.036465,
      "type": 7
    },
    {
      "name": "NRL Cars Pvt Ltd",
      "state": "Uttar Pradesh",
      "city": "Agra",
      "address": "404, Nagla Padi, Near Arvind Hyundai 282005",
      "lattitude": 27.21132,
      "longitude": 77.99742,
      "type": 7
    },
    {
      "name": "Tata Power, Dharavi Colony",
      "state": "Maharashtra",
      "city": "Mumbai",
      "address": "Tata Power Dharavi Colony labour camp dharavi ,Matunga ,Mumbai 400019",
      "lattitude": 19.03571,
      "longitude": 72.8499296,
      "type": 7
    },
    {
      "name": "SABARWAL SERVICE STATION",
      "state": "Delhi",
      "city": "Delhi",
      "address": "Tamil Sangam Marg, Sector 5, Rama Krishna Puram, New Delhi-110022",
      "lattitude": 28.564625,
      "longitude": 77.177461,
      "type": 7
    },
    {
      "name": "RSA Motors",
      "state": "Chandigarh",
      "city": "Chandigarh",
      "address": "Plot No.40, Industrial Area, Phase II, chandigarh - 160002",
      "lattitude": 30.6990516,
      "longitude": 76.7855313,
      "type": 7
    },
    {
      "name": "Shree Shyam Motors",
      "state": "Rajasthan",
      "city": "Jaipur",
      "address": "E(5) B, Road no 1C, VKI area, Jaipur - 302013",
      "lattitude": 26.972289,
      "longitude": 75.777332,
      "type": 7
    },
    {
      "name": "First Mobital",
      "state": "Rajasthan",
      "city": "Jaipur",
      "address": "G1-211, Sitapura Industrial Area, behind genpect Tonk Road, Jaipur - 302022",
      "lattitude": 26.7775967,
      "longitude": 75.8392813,
      "type": 7
    },
    {
      "name": "Roshan Motors",
      "state": "Rajasthan",
      "city": "Jaipur",
      "address": "B-7,Goving marg, raja park, near Pink Square mall.",
      "lattitude": 26.90155,
      "longitude": 75.83532,
      "type": 7
    },
    {
      "name": "Amanora Park Town",
      "state": "Maharashtra",
      "city": "Pune",
      "address": "Crescent Rd, Amanora Park Town, Hadapsar, Pune, Maharashtra 411028",
      "lattitude": 18.5152785,
      "longitude": 73.9458522,
      "type": 7
    },
    {
      "name": "Amanora Township",
      "state": "Maharashtra",
      "city": "Pune",
      "address": "Amanora Township , Hadpasar , Pune 411028",
      "lattitude": 18.518614,
      "longitude": 73.936079,
      "type": 7
    },
    {
      "name": "Sree Gokulam Motors",
      "state": "Tamil Nadu",
      "city": "Chennai",
      "address": "Sree Gokulam Motors, No 93, 3C, 200 Feet Radial road, Zamin Pallavaram, Chennai - 600117",
      "lattitude": 12.950258,
      "longitude": 80.176003,
      "type": 7
    },
    {
      "name": "Shreeji Automart-PIPLOD",
      "state": "Gujarat",
      "city": "Surat",
      "address": "04 A/B, Shreeji House,Opp. Big Bazar,Dumas Road, Piplod,Surat-395 002",
      "lattitude": 21.159829,
      "longitude": 72.770603,
      "type": 7
    },
    {
      "name": "URS KAR motors",
      "state": "Karnataka",
      "city": "Mysuru",
      "address": "Urs Kar, CH 11, New Kantharaj Urs Rd, Mysuru, Karnataka 570004",
      "lattitude": 12.2951473,
      "longitude": 76.6415085,
      "type": 7
    },
    {
      "name": "SHIV HARI & SONS FILLING CENTER",
      "state": "Madhya Pradesh",
      "city": "Rajgad-Bhopal",
      "address": "NH 52, Chainage  454 RHS, Vill- Pipalbey Purohit, Dist- Rajgad-465661",
      "lattitude": 23.997025,
      "longitude": 76.786928,
      "type": 7
    },
    {
      "name": "IOCL Kini Causway",
      "state": "Maharashtra",
      "city": "Mumbai",
      "address": "36, SV Rd, Santosh Nagar, Bandra West, Mumbai, Maharashtra 400050",
      "lattitude": 19.051601,
      "longitude": 72.838011,
      "type": 7
    },
    {
      "name": "Lexus Motors",
      "state": "West Bengal",
      "city": "Kolkata",
      "address": "Budge Budge Trunk Road, Rampur, Kolkata, West Bengal - 700141",
      "type": 9
    },
    {
      "name": "Ananya Auto Agency",
      "state": "Bihar",
      "city": "Patna",
      "address": "Danapur Khagual Road, Near Gayatri Hospital and SSB Camp, Patna, Bihar - 801503",
      "lattitude": 25.61264,
      "longitude": 85.046591,
      "type": 9
    },
    {
      "name": "Arya Motors",
      "state": "Haryana",
      "city": "Gurgaon",
      "address": "Khasra No 1598, Opp Tau Devi Bio Diversity Park, Adjoining Green Home Society, Sector 52, Gurgaon, Haryana - 122 003",
      "lattitude": 28.432922,
      "longitude": 77.089391,
      "type": 9
    },
    {
      "name": "Dada Motors",
      "state": "Punjab",
      "city": "LUDHIANA",
      "address": "Savitri 1, G.T. Road, Dholewal chowk, LUDHIANA, Punjab - 141 003",
      "lattitude": 30.889706,
      "longitude": 75.875999,
      "type": 9
    },
    {
      "name": "Society Motors",
      "state": "Uttar Pradesh",
      "city": "Kanpur",
      "address": "87/8, G.T. Road, Gunjan Cinema Complex, Kanpur, Uttar Pradesh - 208 003",
      "lattitude": 26.46047,
      "longitude": 80.32731,
      "type": 9
    },
    {
      "name": "Puneet Automobiles",
      "state": "Uttar Pradesh",
      "city": "Lucknow",
      "address": "403-407, Tiwariganj, Uttardhauna, Near BBD University, Faizabad Road, Lucknow, Uttar Pradesh - 226 028",
      "lattitude": 26.892284,
      "longitude": 81.072342,
      "type": 9
    },
    {
      "name": "SRM Motors",
      "state": "Uttar Pradesh",
      "city": "Lucknow",
      "address": "11-CP/2, Vikas Nagar Extension, Ring Road, Lucknow, Uttar Pradesh - 226 022",
      "lattitude": 26.90094,
      "longitude": 80.96426,
      "type": 9
    },
    {
      "name": "KHT Motors",
      "state": "Karnataka",
      "city": "Bengaluru",
      "address": "Plot No.7A, Survey No.35, Devasandra Village, Devasandra Industrial Area, K.R. Puram Hobli, Bengaluru, Karnataka - 560 036",
      "lattitude": 12.99824,
      "longitude": 77.69973,
      "type": 9
    },
    {
      "name": "Prerana Motors",
      "state": "Karnataka",
      "city": "Bengaluru",
      "address": "Near NTTF, Peenya Industrial Area, 2nd Stage, Bengaluru, Karnataka - 560 058",
      "lattitude": 13.02944,
      "longitude": 77.51056,
      "type": 9
    },
    {
      "name": "MK Motors",
      "state": "Kerala",
      "city": "Kottayam",
      "address": "A Division of Malankara Plantations Ltd., Channanikadu, Near SN College, Kottayam, Kerala - 686 533",
      "lattitude": 9.542072,
      "longitude": 76.54164,
      "type": 9
    },
    {
      "name": "Suryoday Auto",
      "state": "Maharashtra",
      "city": "Vasai",
      "address": "Nicholas Compound, Sativali Road, Vasai, Maharashtra - 401208",
      "lattitude": 19.406502,
      "longitude": 72.861003,
      "type": 9
    },
    {
      "name": "Metro Motors",
      "state": "Haryana",
      "city": "KARNAL",
      "address": "112/60 Milestone, Near Arpana Hospital, G. T Road, Village Kutail, KARNAL, Haryana - 132037",
      "lattitude": 29.592789,
      "longitude": 76.980713,
      "type": 9
    },
    {
      "name": "Satish Motors",
      "state": "Maharashtra",
      "city": "Aurangabad",
      "address": "Show-Room No. 1 & 2, SMS Arcade, Seven Hills, Gajanan Maharaj Mandir Road, AURANGABAD, Maharashtra - 431005",
      "type": 9
    },
    {
      "name": "Malwa Automobiles",
      "state": "Delhi",
      "city": "Delhi",
      "address": "A-1/16, Prashant Vihar, Delhi, Delhi - 110 085",
      "lattitude": 28.72703,
      "longitude": 77.157234,
      "type": 9
    },
    {
      "name": "Tata Power Vikhroli(Tata Power slow chargers)",
      "state": "Maharashtra",
      "city": "Mumbai",
      "address": "The Tata Power Company Limited, 400 kV Project, Vikhroli Sub Station, Godrej Soap Premises, Vikhroli (East), Mumbai 400079",
      "lattitude": 19.095269,
      "longitude": 72.926195,
      "type": 7
    },
    {
      "name": "Tata Power, Dharavi Receiving Station(Tata Power slow chargers)",
      "state": "Maharashtra",
      "city": "Mumbai",
      "address": "Dharavi Receiving Station, Near Shalimar Industrial Estate, Matunga, Mumbai 400 019",
      "lattitude": 19.0356536,
      "longitude": 72.8540428,
      "type": 7
    },
    {
      "name": "Raheja, Saat Raasta(Tata Power slow chargers)",
      "state": "Maharashtra",
      "city": "Mumbai",
      "address": "25A, Sane Guruji Marg, RTO Colony, Mumbai Central, Mumbai, Maharashtra 400011",
      "lattitude": 18.9797319,
      "longitude": 72.8255146,
      "type": 7
    },
    {
      "name": "Raheja, Saat Raasta(Tata Power slow chargers)",
      "state": "Maharashtra",
      "city": "Mumbai",
      "address": "25A, Sane Guruji Marg, RTO Colony, Mumbai Central, Mumbai, Maharashtra 400011",
      "lattitude": 18.9797319,
      "longitude": 72.8255146,
      "type": 7
    },
    {
      "name": "Plug N Go Patparganj",
      "state": "Delhi NCR",
      "city": "Delhi",
      "address": "Near Swati Apartments",
      "lattitude": 28.62145,
      "longitude": 77.293556,
      "type": 10
    },
    {
      "name": "Plug N Go DLF Gateway Tower",
      "state": "Delhi",
      "city": "Gurugram",
      "address": "DLF Gateway Tower",
      "lattitude": 28.497863,
      "longitude": 77.091413,
      "type": 10
    },
    {
      "name": "MG Jayalakshmi Auto Enterprises Gudavalli Charging Station",
      "state": "Andhra Pradesh",
      "city": "Gudavalli",
      "address": "No 3/142 NH16, Krishna, Gudavalli Junction, Gudavalli, Andhra Pradesh",
      "lattitude": 16.5125845,
      "longitude": 80.7497156,
      "type": 7
    },
    {
      "name": "Habitat Food Court and Restaurant",
      "state": "Andhra Pradesh",
      "city": "Jagannadhapuram",
      "address": "AH45, Jagannadhapuram Agraharam, Andhra Pradesh",
      "lattitude": 17.0689094,
      "longitude": 81.8854474,
      "type": 7
    },
    {
      "name": "Garuda Food Court Gundugolanu Charging station",
      "state": "Andhra Pradesh",
      "city": "Komirepalle",
      "address": "AH45, Komirepalle, Andhra Pradesh",
      "lattitude": 16.7785676,
      "longitude": 81.2210551,
      "type": 7
    },
    {
      "name": "TML Siva Sankar Motors Gajuwaka Charging Station",
      "state": "Andhra Pradesh",
      "city": "Visakhapatnam",
      "address": "Survey No 91/15 & 91/17A Vishweshwaraya Nagar Road Opposite Gayatri Petrol Bunk, Gajuwaka, Visakhapatnam, Andhra Pradesh",
      "lattitude": 17.684452,
      "longitude": 83.185687,
      "type": 7
    },
    {
      "name": "TMl Siva Sankar Motors,Kancharpalem Charging Stationu00a0",
      "state": "Andhra Pradesh",
      "city": "Visakhapatnam",
      "address": "Plot No C24 Industrial ESTE, 104 area, opposite Weighbridge, Industrial Estate, Gavara Kanchara Palem, Industrial Area, Visakhapatnam, Andhra Pradesh",
      "lattitude": 17.7388705,
      "longitude": 83.2622065,
      "type": 7
    },
    {
      "name": "IOCL Irwin Road Connaught Place",
      "state": "Delhi",
      "city": "Connaught Place",
      "address": "Ground Floor, Baba Kharak Singh Rd, DIZ Staff Quarters, Connaught Place, New Delhi, Delhi",
      "lattitude": 28.6283593,
      "longitude": 77.2088946,
      "type": 7
    },
    {
      "name": "19th Hole Charging Station",
      "state": "Delhi",
      "city": "Delhi",
      "address": "Delhi Golf Club, Golf Links, New Delhi, Delhi",
      "lattitude": 28.6019255,
      "longitude": 77.2371892,
      "type": 7
    },
    {
      "name": "TML Truenorth Automobiles, Mayapuri Charging Station",
      "state": "Delhi",
      "city": "Mayapuri",
      "address": "A1/1, Phase 1, Mayapuri Industrial Area Phase I, Mayapuri, New Delhi, Delhi",
      "lattitude": 28.6333639,
      "longitude": 77.127003,
      "type": 7
    },
    {
      "name": "IOCL Intimate FIlling Soami Nagar Charging Station",
      "state": "Delhi",
      "city": "New Delhi",
      "address": "Outer Ring Rd, Block B, Soami Nagar North, Soami Nagar, New Delhi, Delhi",
      "lattitude": 28.5427134,
      "longitude": 77.2252974,
      "type": 7
    },
    {
      "name": "Hundred Percent Filling & Service Station",
      "state": "Delhi",
      "city": "New Delhi",
      "address": "Dabri - Gurgaon Rd, Dwarka Sector 9, Dwarka, New Delhi, Delhi ",
      "lattitude": 28.5786483,
      "longitude": 77.0595137,
      "type": 7
    },
    {
      "name": "MG Priority Auto lincs Taleigao",
      "state": "Goa",
      "city": "Taleigao",
      "address": "Survey No 166/1 New Taleigao Bypass Road, Community Centre, Taleigao Jct, opp. Taleigao, Taleigao, Goa",
      "lattitude": 15.4693627,
      "longitude": 73.8202106,
      "type": 7
    },
    {
      "name": "MG JAi Ganesh Autocars Charging Station",
      "state": "Gujarat",
      "city": "Rajkot",
      "address": "Survey No 215, Shri Balvi House Revenue Kothariya, opposite Krishna Park, Amrut Udhyog Nagar, Rajkot, Gujarat ",
      "lattitude": 22.234444,
      "longitude": 70.801194,
      "type": 7
    },
    {
      "name": "IOCL COCO IT Park Bhagwanpura Chandigarh Charging Station",
      "state": "Haryanau00a0",
      "city": "Chandigarh",
      "address": "Opposite of Tech Mahindra,Rajiv Gandhi Chandigarh Technology Park, Plot No.23, Phase - II, Kishangarh, Chandigarh, Haryana",
      "lattitude": 30.730918,
      "longitude": 76.8364222,
      "type": 7
    },
    {
      "name": "Sneh Dhaba Ganaur HIghwayu00a0 charging station",
      "state": "Haryanau00a0",
      "city": "Ganaur",
      "address": "64 mile stone, Ganaur, Haryana",
      "lattitude": 29.157333,
      "longitude": 77.0358979,
      "type": 7
    },
    {
      "name": "Bikanervala Kukrolau00a0 Panchgaon, Gurugram Charging Station",
      "state": "Haryanau00a0",
      "city": "Gurugram",
      "address": "55th Mile Stone, NH 48, Kukrola, Panchgaon, Gurugram, Haryana",
      "lattitude": 28.3358443,
      "longitude": 76.8989175,
      "type": 7
    },
    {
      "name": "ASL Motors Industrial Area Adityapur Charging Station",
      "state": "Jharkhand",
      "city": "Jamshedpur",
      "address": "A-7, IInd Phase, Adityapur Industrial Area, Adityapur, Jamshedpur, Jharkhand",
      "lattitude": 22.7907039,
      "longitude": 86.1471629,
      "type": 7
    },
    {
      "name": "TML Kropex Singasandra Charging Station",
      "state": "Karnataka",
      "city": "Bengaluru",
      "address": "No 49, 1, Hosur Rd, Aishwarya Crystal Layout, Singasandra, Bengaluru, Karnataka ",
      "lattitude": 12.871773,
      "longitude": 77.651106,
      "type": 7
    },
    {
      "name": "Capital O 72701 Kalinga Tavern Residency",
      "state": "Karnataka",
      "city": "Bengaluru",
      "address": "Bandadka - Bengaluru Rd, Hatna, Karnataka ",
      "lattitude": 12.9748553,
      "longitude": 76.8258338,
      "type": 7
    },
    {
      "name": "TML Adisakti Motors Devanagere Charging Station",
      "state": "Karnataka",
      "city": "Davanagree",
      "address": "No 628/K24, Shramajeevi Building PB Road, Avaragere, beside Aradhya Steel Wire Ropes, Davanagere, Karnataka",
      "lattitude": 14.3451022,
      "longitude": 75.9072234,
      "type": 7
    },
    {
      "name": "Kalinga Tavern Residency Hatna Charging Station",
      "state": "Karnataka",
      "city": "Hatna",
      "address": "Bandadka - Bengaluru Rd, Hatna, Karnataka",
      "lattitude": 12.9748553,
      "longitude": 76.8258338,
      "type": 7
    },
    {
      "name": "MG Jubilant Autoworks Kuloor Padukodi Charging Station",
      "state": "Karnataka",
      "city": "Mangalore",
      "address": "Survey No 38, 2, Kuloor - Kavoor Rd, Kuloor, Padukodi, Mangalore, Karnataka ",
      "lattitude": 12.9236718,
      "longitude": 74.8312107,
      "type": 7
    },
    {
      "name": "TML Auto Matrix Bejai Charging Station",
      "state": "Karnataka",
      "city": "Mangalore",
      "address": "Manjusha Building, Bejai, Mangalore, Karnataka",
      "lattitude": 12.8856418,
      "longitude": 74.8435235,
      "type": 7
    },
    {
      "name": "MG Dyuthi Automobiles Hunsur Road Charging Station",
      "state": "Karnataka",
      "city": "Mysuru",
      "address": "Plot No 201, 1 & 2, Hunsur Rd, Vijayanagar 4th Stage, Hinkal, Mysuru, Karnataka",
      "lattitude": 12.3254509,
      "longitude": 76.6102612,
      "type": 7
    },
    {
      "name": "TML Sree Gokulam Motors And Services Nettoor Charging Station",
      "state": "Kerala",
      "city": "Ernakulam",
      "address": "Building No 10 and 256/C Sy No 1562/1, NH 47, Bypass Road, Nettoor, Maradu, Ernakulam, Kerala",
      "lattitude": 9.9237074,
      "longitude": 76.3179222,
      "type": 7
    },
    {
      "name": "IOCL JRO Pongam Cochin DO Thrissur Charging Stationu00a0",
      "state": "Kerala",
      "city": "Kizhakkummuri",
      "address": "Service Rd, Kizhakkummuri, Kerala",
      "lattitude": 10.2456,
      "longitude": 76.370201,
      "type": 7
    },
    {
      "name": "CoastLine Garages India Private Limited MG",
      "state": "Kerala",
      "city": "Kozhikode",
      "address": "Ground Floor, Kannur Rd, opposite Westhill Post Office, West Hill, Kozhikode, Kerala",
      "lattitude": 11.2823156,
      "longitude": 75.7699409,
      "type": 7
    },
    {
      "name": "TML Marina Motors Pantheerankavu Charging Stationu00a0",
      "state": "Kerala",
      "city": "Kozhikode",
      "address": "NH 66, Bypass Road, Pantheeramkavu, Kerala",
      "lattitude": 11.2171461,
      "longitude": 75.8582801,
      "type": 7
    },
    {
      "name": "TML KVR Dream vehicles Chirakku Thazhe Charging Station",
      "state": "Kerala",
      "city": "Nadal",
      "address": "Ground Floor, Kizhunna - Kadappuram Rd, Chirakku Thazhe, Nadal, Kerala",
      "lattitude": 11.8330285,
      "longitude": 75.4263667,
      "type": 7
    },
    {
      "name": "TML Trivandrum Motors Pvt Ltd Poonthura Charging Station",
      "state": "Kerala",
      "city": "Thiruvananthapuram",
      "address": "Behind Milma Diary, Eanchakkal Kovalam Bypass Road, Ambalathara, Thiruvallam, Puthanpally, Poonthura, Thiruvananthapuram, Kerala",
      "lattitude": 8.4471351,
      "longitude": 76.9492799,
      "type": 7
    },
    {
      "name": "TML Hyson Motors Puzhakkal Charging Stationu00a0",
      "state": "Kerala",
      "city": "Thrissur",
      "address": "Guruvayur Rd, Puzhakkal, Punkunnam, Thrissur, Kerala",
      "lattitude": 10.5405917,
      "longitude": 76.1895738,
      "type": 7
    },
    {
      "name": "Hriday Cars Anoop Nagar Ab Road Charging Station",
      "state": "MadhyaPradesh",
      "city": "Indore",
      "address": "1, AB Rd, New Palasia, Indore, Madhya Pradesh",
      "lattitude": 22.7299599,
      "longitude": 75.888605,
      "type": 7
    },
    {
      "name": "Lilium Park Ahmednagar Charging station",
      "state": "Maharashtra",
      "city": "Ahmednagar",
      "address": "State Highway 44, Opp. Lemon Tree Hotel, Ahmednagar, Maharashtra",
      "lattitude": 19.2644019,
      "longitude": 74.8279426,
      "type": 7
    },
    {
      "name": "TML Max Motors Ahmednagar Charging station",
      "state": "Maharashtra",
      "city": "Ahmednagar",
      "address": "No E2/2 Nagar, Manmad Rd, Gajanan Colony, MIDC, Ahmednagar, Maharashtra",
      "lattitude": 19.157288,
      "longitude": 74.7037569,
      "type": 7
    },
    {
      "name": "Hotel Sangam Karad Charging Point",
      "state": "Maharashtra",
      "city": "Karad",
      "address": "NH 4, Pune-Bangalore Road, Near Kolhapur Naka, Shaniwar Peth, Karad, Maharashtra",
      "lattitude": 17.2737005,
      "longitude": 74.1804228,
      "type": 7
    },
    {
      "name": "Hotel Shivaray shivpur Baug shri Ramnagar Charging Station",
      "state": "Maharashtra",
      "city": "Khed",
      "address": "Pune - Satara Rd, Highway, Pune, Maharashtra",
      "lattitude": 18.3557229,
      "longitude": 73.8525776,
      "type": 7
    },
    {
      "name": "Nathani Heights Charging Station",
      "state": "Maharashtra",
      "city": "Mumbai",
      "address": "Lamington Rd, Marzban Parsi Colony, Opp, Mumbai Central, Mumbai, Maharashtra ",
      "lattitude": 18.9688922,
      "longitude": 72.8206715,
      "type": 7
    },
    {
      "name": "Zenith Chemical MIDC Marol",
      "state": "Maharashtra",
      "city": "Mumbai",
      "address": "B-6, Cross Road B J B Nagar, Bhim Nagar, Andheri East, Mumbai, Maharashtra",
      "lattitude": 19.1156993,
      "longitude": 72.8682757,
      "type": 7
    },
    {
      "name": "IOCL COCO BKC Charging station",
      "state": "Maharashtra",
      "city": "Mumbai",
      "address": "New Coco At, Bandra Kurla Complex, C-67, Bharat Nagar Rd, G Block BKC, Bandra Kurla Complex, Bandra East, Mumbai, Maharashtra ",
      "lattitude": 19.0601877,
      "longitude": 72.864638,
      "type": 7
    },
    {
      "name": "CSMT EV Charging Station",
      "state": "Maharashtra",
      "city": "Mumbai",
      "address": "P D'Mello Rd, Chhatrapati Shivaji Terminus Area, Fort, Mumbai, Maharashtra ",
      "lattitude": 18.9457819,
      "longitude": 72.8383785,
      "type": 7
    },
    {
      "name": "TML Inderjit Mira Rd",
      "state": "Maharashtra",
      "city": "Mumbai",
      "address": "Ground Floor, Platinum Building, next to Brand Factory Showroom, Hatkesh Udhog Nagar, Mira Road, Thane, Maharashtra ",
      "lattitude": 19.2778607,
      "longitude": 72.8803075,
      "type": 7
    },
    {
      "name": "TML Jaika Motors Civil Lines Charging Station",
      "state": "Maharashtra",
      "city": "Nagpur",
      "address": "Jaika Building, 1, Commercial Rd, Collectors Colony, Civil Lines, Nagpur, Maharashtra",
      "lattitude": 21.1557875,
      "longitude": 79.0788136,
      "type": 7
    },
    {
      "name": "Rawmatt Ind Pvt Ltd Wadiu00a0 Charging Stationu00a0",
      "state": "Maharashtra",
      "city": "Nagpur",
      "address": "Old Wadi Naka, No. 10, Amravati Rd, Wadi, Nagpur, Maharashtra",
      "lattitude": 21.1539066,
      "longitude": 79.0132024,
      "type": 7
    },
    {
      "name": "MG Nagpur",
      "state": "Maharashtra",
      "city": "Nagpur",
      "address": "Plot No. 33B, Midc, Hingna, Nagpur, Maharashtra ",
      "lattitude": 21.1324669,
      "longitude": 79.0040149,
      "type": 7
    },
    {
      "name": "Tata Motors rudra motors Viman Nagar Charging Station",
      "state": "Maharashtra",
      "city": "Pune",
      "address": "Sakore Nagar, Viman Nagar, Pune, Maharashtra ",
      "lattitude": 18.5571946,
      "longitude": 73.9079828,
      "type": 7
    },
    {
      "name": "TML Panchjanya Automobiles, Chinchwad Ram Nagar Charging Station",
      "state": "Maharashtra",
      "city": "Pune",
      "address": "No 49, Ador Power Station, D-II Block, Kalbhor Nagar, MIDC, Chinchwad, Pimpri-Chinchwad, Maharashtra",
      "lattitude": 18.648574,
      "longitude": 73.7987208,
      "type": 7
    },
    {
      "name": "Hotel Sai International Sangali charging station",
      "state": "Maharashtra",
      "city": "Sangli",
      "address": "Pune Bangalore Highway (NH-4, Vasant Park Chougle Plot, Yelur, Maharashtra",
      "lattitude": 16.9535972,
      "longitude": 74.2755326,
      "type": 7
    },
    {
      "name": "MG Unique automobiles Maharashtra Shiroli Charging Station",
      "state": "Maharashtra",
      "city": "Shiroli",
      "address": "S No 592, H No 4481 Pune Banglore Highway, MIDC, Shiroli, Maharashtra ",
      "lattitude": 16.7527531,
      "longitude": 74.278712,
      "type": 7
    },
    {
      "name": "TML Dion Automotives, Samantarapur",
      "state": "Odisha",
      "city": "Bhubaneshwar",
      "address": "Plot No 2175, 3766, Samantarapur, Old Town, Bhubaneswar, Odisha",
      "lattitude": 20.2270081,
      "longitude": 85.841079,
      "type": 7
    },
    {
      "name": "TML Gugnani Autocars, Pratap Nagari",
      "state": "Odisha",
      "city": "Urali",
      "address": "Plot No 785, NH16, Pratap Nagari, Urali, Odisha",
      "lattitude": 20.405221,
      "longitude": 85.87967,
      "type": 7
    },
    {
      "name": "MG Motor India",
      "state": "Pondicherry",
      "city": "Pondicherry",
      "address": "No 1, Cuddalore Pondicherry, SH 49, Ariyankuppam, Puducherry ",
      "lattitude": 11.8946021,
      "longitude": 79.8024716,
      "type": 7
    },
    {
      "name": "TML Dada Motors Heera singh Charging Station",
      "state": "Punjab",
      "city": "Ludhiana",
      "address": "Chowk, Jalandhar Bypass, near Kabaari Market,Samrala, Moti Nagar, Ludhiana, Punjab",
      "lattitude": 30.895735,
      "longitude": 75.884115,
      "type": 7
    },
    {
      "name": "IOCL COCO 65 Mohali Shaibzada Charging Station",
      "state": "Punjab",
      "city": "Punjab",
      "address": "631a, 631A, Phase 11, Sector 65, Sahibzada Ajit Singh Nagar, Punjab",
      "lattitude": 30.6797129,
      "longitude": 76.746311,
      "type": 7
    },
    {
      "name": "Tata Akar Fourwheel",
      "state": "Rajasthan",
      "city": "Jaipur",
      "address": "PLOT NO 309, 310, Queens Rd, Nemi Sagar Colony, D - Block, Vaishali Nagar, Jaipur, Rajasthan ",
      "lattitude": 26.9149585,
      "longitude": 75.7529051,
      "type": 7
    },
    {
      "name": "MG Chambal Motors MAdri Industrial Area",
      "state": "Rajasthan",
      "city": "Udaipur",
      "address": "CP- 6&7, Madri Industrial Area, Transport Nagar, Udaipur, Rajasthan ",
      "lattitude": 24.5747664,
      "longitude": 73.7465355,
      "type": 7
    },
    {
      "name": "Mg FPL Vehicles Annasali Nandnam Charging Station",
      "state": "TamilNadu",
      "city": "Chennai",
      "address": "No. 824, 2, Anna Salai, Sadras, Nandanam, Chennai, Tamil Nadu",
      "lattitude": 13.0481744,
      "longitude": 80.2496475,
      "type": 7
    },
    {
      "name": "MG PPS Motors Chinniyampalayam Charging Station",
      "state": "TamilNadu",
      "city": "Coimbatore",
      "address": "PPS Motors Pvt. Ltd, 138, Avinashi Rd, Chinniyampalayam, Coimbatore, Tamil Nadu",
      "lattitude": 11.0501583,
      "longitude": 77.0577882,
      "type": 7
    },
    {
      "name": "TML True Sai Motors Krishnagiri",
      "state": "TamilNadu",
      "city": "Krishnagiri",
      "address": "No 417A/1A Krishnagiri Chennai Highway, Pethanapalli, opposite to Hotel, Krishnagiri, Tamil Nadu ",
      "lattitude": 12.5307134,
      "longitude": 78.2378533,
      "type": 7
    },
    {
      "name": "TML True Sai Motors Salem Charging Station",
      "state": "TamilNadu",
      "city": "Salem",
      "address": "No 73 Salem, Omalur Highway, next to Hotel Grand Estancia, Narasothipatti, Salem, Tamil Nadu",
      "lattitude": 11.6831188,
      "longitude": 78.1259762,
      "type": 7
    },
    {
      "name": "Vivera Hotels and Resorts Bhuvanagri Charging Station",
      "state": "Telangana",
      "city": "Bhongir",
      "address": "NH 163, Ragari, near IT College, Bhongir, Telangana",
      "lattitude": 17.5227299,
      "longitude": 78.9246504,
      "type": 7
    },
    {
      "name": "Vivera Hotels And Resorts Loc 1 Narketpally Charging Station",
      "state": "Telangana",
      "city": "Narketpally",
      "address": "NH65, Telangana",
      "lattitude": 17.212877,
      "longitude": 79.1667472,
      "type": 7
    },
    {
      "name": "HIghway Hospitality Rajugari Thota Rayangudem Charging Stationu00a0",
      "state": "Telangana",
      "city": "Suryapet",
      "address": "NH 65, Rayangudem Village,Suryapet,Telangana",
      "lattitude": 17.1526245,
      "longitude": 79.5699144,
      "type": 7
    },
    {
      "name": "7 Food Court Suryapet charging station",
      "state": "Telangana",
      "city": "Suryapet",
      "address": "NH - 65, Rayangudem Village Suryapet Mandal, Suryapet, Telangana",
      "lattitude": 17.1506494,
      "longitude": 79.5769862,
      "type": 7
    },
    {
      "name": "TML Select Motors, SVP Road charging Station",
      "state": "Telangana",
      "city": "Warangal",
      "address": "No 15/1/422/A and B SVP Road, beside Industrial Estate, Vidya Nagar, Warangal, Telangana",
      "lattitude": 17.9992079,
      "longitude": 79.5856293,
      "type": 7
    },
    {
      "name": "MG Grand Vehicles Mahobelwala Chowk Chargingu00a0 Station",
      "state": "Uttarakhand",
      "city": "Dehradun",
      "address": "Chowk, Saharanpur Rd, Mohabbewala, Dehradun, Uttarakhand",
      "lattitude": 30.268267,
      "longitude": 77.9850961,
      "type": 7
    },
    {
      "name": "TML Oberai Motors ISBT Rd Majrau00a0",
      "state": "Uttrakhand",
      "city": "Dehradun",
      "address": "SBT Chowk, Near, Shimla Bypass Rd, Majra, Dehradun, Uttarakhand",
      "lattitude": 30.2886629,
      "longitude": 77.9967839,
      "type": 7
    },
    {
      "name": "TML Banerjee Automobiles Charging Station",
      "state": "WestBengal",
      "city": "Bardhaman",
      "address": "Ferighat Parking Purba Burdwan, NH 2, Fagupur, Chandul PO Fagupur, Purba, Khosbagan, Bardhaman, West Bengal",
      "lattitude": 23.2408471,
      "longitude": 87.8512589,
      "type": 7
    },
    {
      "name": "24 SEVEN FILLING STATION",
      "state": "Harayana",
      "city": "Gurugram",
      "address": "Golf Course Ext Rd & Southern Peripheral Rd, Badshahpur, Sector 66, Gurugram, Haryana",
      "lattitude": 28.4012813,
      "longitude": 77.0451066,
      "type": 7
    },
    {
      "name": "64th Milestone Delhi Chandigarh Highway",
      "state": "Chandigarh",
      "city": "Chandigarh",
      "address": "64th Milestone Delhi Chandigarh Highway",
      "lattitude": 29.27169018,
      "longitude": 77.05727364,
      "type": 7
    },
    {
      "name": "AIRIA MALL",
      "state": "Haryana",
      "city": "Gurugram",
      "address": "Sohna Rd, Sector 68, Gurugram, Haryana",
      "lattitude": 28.3865666,
      "longitude": 77.0519037,
      "type": 7
    },
    {
      "name": "Amrai Hotel & Resort , Shendre Satara",
      "state": "Maharashtra",
      "city": "Satara",
      "address": "KG.NO 207/B, Plot No-1&2, Near National Highway No-4, Shendre, Satara, Maharashtra",
      "lattitude": 17.6379827,
      "longitude": 74.0121132,
      "type": 7
    },
    {
      "name": "Bhasin Service Station",
      "state": "Delhi",
      "city": "NewDelhi",
      "address": "Dr KS Krishnan Marg, Pusa, New Delhi, Delhi",
      "lattitude": 28.6372583,
      "longitude": 77.1735256,
      "type": 7
    },
    {
      "name": "Croma Habsiguda",
      "state": "Hyderabadu00a0",
      "city": "hyderabad",
      "address": "nit - 2 & 3,Ground floor, Plot survey No.46, opposite Megha Women's Degree and PG College, Pragathi Nagar, Habsiguda, Hyderabad, Telangana",
      "lattitude": 17.4003087,
      "longitude": 78.5421211,
      "type": 7
    },
    {
      "name": "Gitansh Motors GT Road",
      "state": "Punjab",
      "city": "Ludhiana",
      "address": "Silver Arc Mall, Gurdev Nagar, Ludhiana, Punjab",
      "lattitude": 30.9005314,
      "longitude": 75.8290442,
      "type": 7
    },
    {
      "name": "Hundred Percent Filling & Service Station",
      "state": "Delhi",
      "city": "NewDelhi",
      "address": "Dabri - Gurgaon Rd, Dwarka Sector 9, Dwarka, New Delhi, Delhi 110075",
      "lattitude": 28.5786483,
      "longitude": 77.0595137,
      "type": 7
    },
    {
      "name": "IOCL Jai Sai Motors",
      "state": "Delhi",
      "city": "NewDelhi",
      "address": "Okhla Phase I, Okhla Industrial Area, New Delhi, Delhi",
      "lattitude": 28.5223359,
      "longitude": 77.2848972,
      "type": 7
    },
    {
      "name": "Lakshmi Motors, Velachery",
      "state": "TamilNadu",
      "city": "Chennai",
      "address": "42, Velachery Rd, Guindy National Park, Guindy, Chennai, Tamil Nadu",
      "lattitude": 13.0068975,
      "longitude": 80.2208424,
      "type": 7
    },
    {
      "name": "Mg FPL Vehicles Annasali Nandnam Charging Station",
      "state": "TamilNadu",
      "city": "Chennai",
      "address": "No. 824, 2, Anna Salai, Sadras, Nandanam, Chennai, Tamil Nadu",
      "lattitude": 13.0481744,
      "longitude": 80.2496475,
      "type": 7
    },
    {
      "name": "MG JAi Ganesh Autocars Charging Station",
      "state": "Gujarat",
      "city": "Rajkot",
      "address": "Survey No 215, Shri Balvi House Revenue Kothariya, opposite Krishna Park, Amrut Udhyog Nagar, Rajkot, Gujarat",
      "lattitude": 22.234444,
      "longitude": 70.801194,
      "type": 7
    },
    {
      "name": "Muthoot Automotive Kollam",
      "state": "Kerala",
      "city": "Kollam",
      "address": "Machoos Properties, Bypass, near Medicity Hospital, Mylapure, Mevaram, Kollam, Kerala",
      "lattitude": 8.873755,
      "longitude": 76.6410723,
      "type": 7
    },
    {
      "name": "Panchjanya - Bhosari - CCS",
      "state": "Maharashtra",
      "city": "Pimpri-Chinchwad",
      "address": "Wakad - Bhosari BRTS Rd, Century Enka Colony, Bhosari, Pimpri-Chinchwad, Maharashtra",
      "lattitude": 18.61586,
      "longitude": 73.8474935,
      "type": 7
    },
    {
      "name": "Shiv Shanker Motors, Hukumpet",
      "state": "AndhraPradesh",
      "city": "VIsakhapatnam",
      "address": "36-93-205/13, 4, NH16, Jawaharlal Nagar, Indira Nagar, Kothavada, Kancharapalem, Visakhapatnam, Andhra Pradesh",
      "lattitude": 17.7356241,
      "longitude": 83.2767608,
      "type": 7
    },
    {
      "name": "SR Tranzcars, Saibaba Koil",
      "state": "TamiNadu",
      "city": "Coimbatore",
      "address": "1142a, Mettupalayam Rd, Nesavaalar Colony, Saibaba Koil, Coimbatore, Tamil Nadu",
      "lattitude": 11.0229439,
      "longitude": 76.9511688,
      "type": 7
    },
    {
      "name": "Tanishq Cathedral Rd, Gopalapuram Charging Station",
      "state": "TamilNadu",
      "city": "Chennai",
      "address": "100/48, Cathedral Rd, Gopalapuram, Chennai, Tamil Nadu",
      "lattitude": 13.0467233,
      "longitude": 80.2554136,
      "type": 7
    },
    {
      "name": "Tata Motors Cars Showroom - Kropex Auto, Hosur Main Road",
      "state": "Karnataka",
      "city": "Bengaluru",
      "address": "No 49, 1, Hosur Rd, Aishwarya Crystal Layout, Singasandra, Bengaluru, Karnataka 560068",
      "lattitude": 12.871773,
      "longitude": 77.651106,
      "type": 7
    },
    {
      "name": "Terry's Super Market",
      "state": "Goa",
      "city": "Penha de Franu00e7a,",
      "address": "Alto- Betim Porvorim, Penha de Franu00e7a, Goa",
      "lattitude": 15.5064156,
      "longitude": 73.8281319,
      "type": 7
    },
    {
      "name": "TML ABC Autolink Ranoli GIDC",
      "state": "Gujarat",
      "city": "Vadodara",
      "address": "Ranoli GIDC, Ranoli, Vadodara, Gujarat",
      "lattitude": 22.4010072,
      "longitude": 73.1379109,
      "type": 7
    },
    {
      "name": "TML Basudeb Auto Shanti Nagar Charging station",
      "state": "Jharkhand",
      "city": "Ranchi",
      "address": "11, Kokar Industrial Area, Shanti Nagar, Ranchi, Jharkhand",
      "lattitude": 23.3730871,
      "longitude": 85.3509321,
      "type": 7
    },
    {
      "name": "TML Malwa Automobiles Prashant Vihar Charging Station",
      "state": "Delhi",
      "city": "Rohini",
      "address": "A-1/16, A Block, Prashant Vihar, Sector 14, Rohini, Delhi",
      "lattitude": 28.7095055,
      "longitude": 77.1354359,
      "type": 7
    },
    {
      "name": "Trivandrum Motors Pvt. Ltd.",
      "state": "Kerala",
      "city": "Thiruvananthapuram",
      "address": "BEHIND AMBALATHARA MILMA DIARY, POONTHURA, Kazhakootam - Kovalam Bypass Rd, Ambalathara, Thiruvananthapuram, Kerala",
      "lattitude": 8.4556247,
      "longitude": 76.9456323,
      "type": 7
    },
    {
      "name": "Uniworld City New Town Charging Station",
      "state": "WestBengal",
      "city": "kolkata",
      "address": "Tower 1, Uniworld City, Newtown, New Town, West Bengal 700156",
      "lattitude": 22.6246559,
      "longitude": 88.49088053,
      "type": 7
    },
    {
      "name": "TC Motors, Domjur Charging station",
      "state": "WestBengal",
      "city": "kolkata",
      "address": "Ground Floor NH 6, Salap More, Domjur Near Kolkatta, West International City, Howrah, West Bengal 711403",
      "lattitude": 22.61465057,
      "longitude": 88.27318444,
      "type": 7
    },
    {
      "name": "Sara Automobile Surajmandal Charging station",
      "state": "Bihar",
      "city": "gaya",
      "address": "Grand Trunk Rd, Nanhu Bigha, Bihar 824220",
      "lattitude": 24.5251309,
      "longitude": 84.93219058,
      "type": 7
    },
    {
      "name": "Brookfields Mall",
      "state": "Tamil Nadu",
      "city": "Coimbatore",
      "address": "Parking, BrookefieldsMall, B1, Dr Krishnasamy Mudaliyar Rd, Ram Nagar, Coimbatore, Tamil Nadu 641001",
      "lattitude": 11.00902,
      "longitude": 76.95997,
      "type": 11
    },
    {
      "name": "Sree Saravana Bhavan",
      "state": "Tamil Nadu",
      "city": "Sankari",
      "address": "Near Salem Toll Gate, Vaikundam, Sankari, Tamil Nadu 637103",
      "lattitude": 11.5213,
      "longitude": 77.93434,
      "type": 11
    },
    {
      "name": "Zeon Office",
      "state": "Tamil Nadu",
      "city": "Tiruppur",
      "address": "167, Union Mill Road Near 12R Kalyana mandapam, Tiruppur, Tamil Nadu 641601",
      "lattitude": 11.10635,
      "longitude": 77.35038,
      "type": 11
    },
    {
      "name": "Sri Sakthi Cinemas",
      "state": "Tamil Nadu",
      "city": "Tiruppur",
      "address": "Sri Sakthi Cinemas, 256, Union Mill Rd, KPN Colony, Valipalayam, Tiruppur, Tamil Nadu 641601",
      "lattitude": 11.10618,
      "longitude": 77.35042,
      "type": 11
    },
    {
      "name": "GRT Hotels",
      "state": "Tamil Nadu",
      "city": "Yercaud",
      "address": "Great Trails Yercaud by GRT Hotels, 20th Hairpin Bend, Main Road, Yercaud, Tamil Nadu 636602",
      "lattitude": 11.77929,
      "longitude": 78.1987,
      "type": 11
    },
    {
      "name": "Adyar ananda bhavan",
      "state": "Tamil Nadu",
      "city": "Attur",
      "address": "NH79, Thulakanoor, Attur, Tamil Nadu 636141",
      "lattitude": 11.593,
      "longitude": 78.62675,
      "type": 11
    },
    {
      "name": "Mall of mysore",
      "state": "Karnataka",
      "city": "Mysuru",
      "address": "Mall Of Mysore No.C-1, M.G Road Indira Nagar, Nazarbad Mohalla, Extension, Mysuru, Karnataka 570010",
      "lattitude": 12.29774286,
      "longitude": 76.66466775,
      "type": 11
    },
    {
      "name": "The Forum mall",
      "state": "Karnataka",
      "city": "Bengaluru",
      "address": "The Forum Mall, Hosur Rd, Koramangala, Bengaluru, Karnataka 560095",
      "lattitude": 12.93544,
      "longitude": 77.6115,
      "type": 11
    },
    {
      "name": "The Forum mall",
      "state": "Karnataka",
      "city": "Bengaluru",
      "address": "The Forum Mall, Hosur Rd, Koramangala, Bengaluru, Karnataka 560095",
      "lattitude": 12.93544,
      "longitude": 77.6115,
      "type": 11
    },
    {
      "name": "Hotel Gem Park",
      "state": "Tamil Nadu",
      "city": "Ooty",
      "address": "Sheddon Road, Pudumund Ooty, Tamilnadu 643001",
      "lattitude": 11.42014319,
      "longitude": 76.70313591,
      "type": 11
    },
    {
      "name": "Hotel surya complex",
      "state": "Tamil Nadu",
      "city": "Krishnagiri",
      "address": "Hotel Surya Complex NH 44, Krishnagiri, Bengaluru Highway, Polupalli, Tamil Nadu 635115",
      "lattitude": 12.58229,
      "longitude": 78.15705,
      "type": 11
    },
    {
      "name": "Chambal MotoCorp, Udaipur",
      "state": "Rajasthan",
      "city": "Udaipur",
      "address": "Plot No 3 and, 4, Panchsheel Marg, Surajpole, Udaipur, Rajasthan 313001",
      "lattitude": 24.5813910958158,
      "longitude": 73.6975982682541,
      "type": 7
    },
    {
      "name": "TML Sara Automobile dobhi charging station",
      "state": "Bihar",
      "city": "Gaya",
      "address": "Sara Automobile Pvt Ltd Eicher agency, , opp punjab national bank, bihar 824201",
      "lattitude": 24.5250847233714,
      "longitude": 84.9321118724815,
      "type": 7
    },
    {
      "name": "TML Sree auto gubbi gate tumakuru Charging Station",
      "state": "Karnataka",
      "city": "Tumakuru",
      "address": "No 1 BH Road Near Gubbi, Gate, Tumakuru, Karnataka 572107",
      "lattitude": 13.3802422031909,
      "longitude": 77.0866254070017,
      "type": 7
    },
    {
      "name": "MG PPS Motors Uchapatti Madurai Charging Station",
      "state": "Tamil Nadu",
      "city": "Madurai",
      "address": "Shed No D-23, Nilaiyur first bit, Uchapatti, thirumangalam, madurai, Tamil nadu, 625008",
      "lattitude": 9.868615589,
      "longitude": 78.0215976060576,
      "type": 7
    },
    {
      "name": "FPL Vehicles Perumugai",
      "state": "Tamil Nadu",
      "city": "Vellore",
      "address": "No 33/5A1, Chennai Bangalore Highway, Perumugai, Tamil Nadu 632009",
      "lattitude": 12.9491237477248,
      "longitude": 79.2006471184122,
      "type": 7
    },
    {
      "name": "TML Ashok Auto sales Civil lines",
      "state": "Uttar Pradesh",
      "city": "Agra",
      "address": "119-120/8, Sanjay Palace, Sanjay Place, Civil Lines, Agra, Uttar Pradesh 282002",
      "lattitude": 27.2006451695444,
      "longitude": 78.008244601394,
      "type": 7
    },
    {
      "name": "Hotel Dreamland Mahableshwar Charger",
      "state": "Maharashtra",
      "city": "Mahableshwar",
      "address": "Hotel dream land, behind ST bus stand, Mahableshwar, Maharashtra",
      "lattitude": 17.9258532005629,
      "longitude": 73.6555440323019,
      "type": 7
    },
    {
      "name": "Zeon Charging Station Salem",
      "state": "Tamil Nadu",
      "city": "Salem",
      "address": "Near Sankagiri Toll, Tamil Nadu 637103 Phone No - +914446314004",
      "lattitude": 11.519275448150031,
      "longitude": 77.9347375,
      "type": 11
    },
    {
      "name": "IOCL Nature park Makalhati charging station",
      "state": "West Bengal",
      "city": "Kolkata",
      "address": "Makalhati Mauza, Kolkata, West Bengal 700088",
      "lattitude": 22.5230832322422,
      "longitude": 88.2910409465527,
      "type": 7
    },
    {
      "name": "IOCL Shilposree filling Alipore Charging Station",
      "state": "West Bengal",
      "city": "Kolkata",
      "address": "Alipore Rd, Alipore, Kolkata, West Bengal 700027",
      "lattitude": 22.5226481564681,
      "longitude": 88.3348624578831,
      "type": 7
    },
    {
      "name": "IOCL drive In Dutta Bagan Charging Station",
      "state": "West Bengal",
      "city": "Kolkata",
      "address": "Khudiram Bose Rd, Dutta Bagan, Belgachia, Kolkata, West Bengal 700037",
      "lattitude": 22.6087576309034,
      "longitude": 88.3922794899459,
      "type": 7
    },
    {
      "name": "IOCL Dwarka Service, Rajbari Dum dum Charging station",
      "state": "West Bengal",
      "city": "Kolkata",
      "address": "Jessore Rd, Post Office Rd, Mahendra Colony, Gora Bazar, Rajbari, Dum Dum, Kolkata, West Bengal 700028",
      "lattitude": 22.6319888039941,
      "longitude": 88.4214050986271,
      "type": 7
    },
    {
      "name": "Galleria | Statiq Charging Station 7002",
      "state": "Haryana",
      "city": "Gurugram",
      "address": "In front of Nathu's, Galleria Market, DLF Phase IV, Sector 28, Gurugram, Haryana 122022",
      "lattitude": 28.467452,
      "longitude": 77.0814618,
      "type": 12
    },
    {
      "name": "Neelkanth Star Karnal, NH 44| Statiq Charging Station 7001",
      "state": "Haryana",
      "city": "Karnal",
      "address": "Neelkanth Star, NH 44, in front of Neelkanth Star Karnal, Gharunda, Kutail, Haryana 132114",
      "lattitude": 29.6019676,
      "longitude": 76.9797907,
      "type": 12
    },
    {
      "name": "Highway Express NH, 48 | Statiq Charging Station 7003",
      "state": "Rajasthan",
      "city": "Behror",
      "address": "Hotel Highway Xpress Delhi Side, Behror Sherpur Jaipur to Delhi Road Behror Midway, Behror, Rajasthan 301701",
      "lattitude": 27.8741681,
      "longitude": 76.2740281,
      "type": 12
    },
    {
      "name": "Fun and Food Carnival NH, 58 | Statiq Charging Station 7004",
      "state": "Uttar Pradesh",
      "city": "Bhainsi",
      "address": "Fun and Food Carnival, NH 58, Khatauli Bypass, Bhainsi, Uttar Pradesh 251201",
      "lattitude": 29.310069234255437,
      "longitude": 77.72196834114824,
      "type": 12
    },
    {
      "name": "IOCL - COCO, Prabhadevi",
      "state": "Maharashtra",
      "city": "Mumbai",
      "address": "Plot No, P. N. 1207, CADELL RD. MUMBAI, PRABHADEVI CADEL RD., MUMBAI - 400022.",
      "lattitude": 19.018857,
      "longitude": 72.831076,
      "type": 7
    },
    {
      "name": "GPS Automobiles, Tonk Road",
      "state": "Rajasthan",
      "city": "Jaipur",
      "address": "Plot No. 2& 3/4, Choudhary Charan Singh Colony, Tonk Road, Jaipur, 302029",
      "lattitude": 26.833144,
      "longitude": 75.7951,
      "type": 7
    },
    {
      "name": "Jitendra Wheels, Ambad",
      "state": "Maharashtra",
      "city": "Nashik",
      "address": "B-88 MIDC AMBAD, Mumbai Agra highway,Next to Hotel gateway Nashik-  422010",
      "lattitude": 19.950077,
      "longitude": 73.749175,
      "type": 7
    },
    {
      "name": "Dhoot Motors, Adalat Road",
      "state": "Maharashtra",
      "city": "Aurangabad",
      "address": "ABC Complex, Adalat Road, Aurangabad, Maharashtra 431005Second location for survey : Adalat Road, Next to High Court, Aurangabad, Maharashtra 431005",
      "lattitude": 19.872922,
      "longitude": 75.318613,
      "type": 7
    },
    {
      "name": "Arise Autoz, Narwal Byepass",
      "state": "Jammu",
      "city": "Jammu",
      "address": "Arise Autoz Pvt Ltd, Mailk Market , Narwal Byepass Jammu-180016",
      "lattitude": 32.70661,
      "longitude": 74.89568,
      "type": 7
    },
    {
      "name": "Mahanagar Gas Limited, Wadala",
      "state": "Maharashtra",
      "city": "Mumbai",
      "address": "MGL Terminal, opposite Anik Depot, Wadala, Mumbai, Maharashtra 400022",
      "lattitude": 19.0472567,
      "longitude": 72.8783829,
      "type": 7
    },
    {
      "name": "Sarath City Capital Mall, Whitefields",
      "state": "Telangana",
      "city": "Hyderabad",
      "address": "Sarath City Capital Mall, Whitefields, Gachibowli-Miyapur Road, Hyderbad 500084",
      "lattitude": 17.457774,
      "longitude": 78.36396,
      "type": 7
    },
    {
      "name": "IOCL - COCO, Jungpura",
      "state": "Delhi",
      "city": "Delhi",
      "address": "Lala Lajpat Rai Marg, Jangpura, Nizamuddin West, New Delhi- 110014",
      "lattitude": 28.587135,
      "longitude": 77.241353,
      "type": 7
    },
    {
      "name": "IOCL - RK Service Station, ChanakyaPuri",
      "state": "Delhi",
      "city": "Delhi",
      "address": "Vinay Marg, ChanakyaPuri, New Delhi - 110021",
      "lattitude": 28.58342,
      "longitude": 77.191319,
      "type": 7
    },
    {
      "name": "Croma u2013 MVR Complex, Waltair Uplands",
      "state": "Andhra Pradesh",
      "city": "Vizag",
      "address": "Ground & First floor, MVR # 10-1-39/B&C, Siripuram Cir, opp. Rock Park, Waltair Uplands, Visakhapatnam, Andhra Pradesh 530003",
      "lattitude": 17.725417,
      "longitude": 83.315175,
      "type": 7
    },
    {
      "name": "BHASIN VENTURES, Telibandha",
      "state": "Chhattisgarh",
      "city": "Raipur",
      "address": "NH-6, NEAR CHOKRA NALA, Labhandi Rd, opp. M.S. PETROL PUMP P.O, Ravigram, Telibandha, Raipur, Chhattisgarh 492006",
      "lattitude": 21.2378172,
      "longitude": 81.6896148,
      "type": 7
    },
    {
      "name": "IOCL - COCO Niti Marg, Chanakyapuri",
      "state": "Delhi",
      "city": "Delhi",
      "address": "Niti Marg, ChanakyaPuri, New Delhi-110021",
      "lattitude": 28.599629,
      "longitude": 77.195806,
      "type": 7
    },
    {
      "name": "Varenyam Motor Car, Industrial Area",
      "state": "Madhya Pradesh",
      "city": "Bhopal",
      "address": "56-57 JK Road Govindpura, Sector A, Govindpura Industrial Area, Bhopal, Madhya Pradesh 462023",
      "lattitude": 23.259006,
      "longitude": 77.456769,
      "type": 7
    },
    {
      "name": "IOCL Thiruvonam fuels, Mankavu",
      "state": "Kerala",
      "city": "Palakkad",
      "address": "20/262, Coimbatore Rd, Kalvakulam, Mankavu, Palakkad, Kerala 678013",
      "lattitude": 10.769908,
      "longitude": 76.668149,
      "type": 7
    },
    {
      "name": "Palladium, Lower Parel",
      "state": "Maharashtra",
      "city": "Mumbai",
      "address": "462, Tulsi Pipe Rd, Lower Parel, Mumbai, Maharashtra 400013",
      "lattitude": 18.9940072,
      "longitude": 72.8251406,
      "type": 7
    },
    {
      "name": "Phoenix Market City, Kurla (W)",
      "state": "Maharashtra",
      "city": "Mumbai",
      "address": "LBS Rd, Kamani, Kurla West, Kurla, Mumbai, Maharashtra 400070",
      "lattitude": 19.0861629,
      "longitude": 72.8893698,
      "type": 7
    },
    {
      "name": "Phoenix Market City, Kurla (W)",
      "state": "Maharashtra",
      "city": "Mumbai",
      "address": "LBS Rd, Kamani, Kurla West, Kurla, Mumbai, Maharashtra 400070",
      "lattitude": 19.0861629,
      "longitude": 72.8893698,
      "type": 7
    },
    {
      "name": "Balajee Auto, Aundh",
      "state": "Maharashtra",
      "city": "Pune",
      "address": "Phase 2, Siddarth Nagar Society, Aundh, Pune, Maharashtra 411007",
      "lattitude": 18.567199,
      "longitude": 73.812297,
      "type": 7
    },
    {
      "name": "Balajee Auto, Aundh",
      "state": "Maharashtra",
      "city": "Pune",
      "address": "Phase 2, Siddarth Nagar Society, Aundh, Pune, Maharashtra 411007",
      "lattitude": 18.567199,
      "longitude": 73.812297,
      "type": 7
    },
    {
      "name": "Vikarsh Nano technology, Dhangarwadi",
      "state": "Maharashtra",
      "city": "Satara",
      "address": "Vikarsh Nano technology & Alloys pvt ltd Gat No 273&274 Dhangarwadi village Tal- Khandala, Shirwal Dist- Satara 412801",
      "lattitude": 18.11289,
      "longitude": 73.98985,
      "type": 7
    },
    {
      "name": "Vikarsh Nano technology, Dhangarwadi",
      "state": "Maharashtra",
      "city": "Satara",
      "address": "Vikarsh Nano technology & Alloys pvt ltd Gat No 273&274 Dhangarwadi village Tal- Khandala, Shirwal Dist- Satara 412801",
      "lattitude": 18.11289,
      "longitude": 73.98985,
      "type": 7
    },
    {
      "name": "IOCL - MC2, Industrial Area II",
      "state": "Chandigarh",
      "city": "Chandigarh",
      "address": "Indian OIL - MC 2 , Industrial area Phase-II MC Site, CHANDIGARH TOZIRAKPUR ROAD AT INDUSTRIAL AREA, PHASE-II, CHANDIGARH (U.T.), Chandigarh, PIN: 160002",
      "lattitude": 30.69649,
      "longitude": 76.79662,
      "type": 7
    },
    {
      "name": "IOCL - Fortune Service Centre, Rohini",
      "state": "Delhi",
      "city": "Delhi",
      "address": "Block A, Sector 19, Rohini, Delhi, 110085",
      "lattitude": 28.727309,
      "longitude": 77.142992,
      "type": 7
    },
    {
      "name": "IOCL - COCO WRD, Agarkar Nagar",
      "state": "Maharashtra",
      "city": "Pune",
      "address": "Agarkar Nagar, Pune, Maharashtra 411001",
      "lattitude": 18.5269679,
      "longitude": 73.8655123,
      "type": 7
    },
    {
      "name": "IOCL - BK Petroleum , Hinjewadi Pune",
      "state": "Maharashtra",
      "city": "Pune",
      "address": "Hinjawadi Rd, Hinjawadi Village, Hinjawadi, Pimpri-Chinchwad, Maharashtra 411057",
      "lattitude": 18.591123,
      "longitude": 73.748939,
      "type": 7
    },
    {
      "name": "IOCL - BK Petroleum , Hinjewadi Pune",
      "state": "Maharashtra",
      "city": "Pune",
      "address": "Hinjawadi Rd, Hinjawadi Village, Hinjawadi, Pimpri-Chinchwad, Maharashtra 411057",
      "lattitude": 18.591123,
      "longitude": 73.748939,
      "type": 7
    },
    {
      "name": "KVR Dream vehicles, Vidya Nagar",
      "state": "Kerala",
      "city": "Kasargod",
      "address": "Panalam Nayamar Moola, Alampady Manya Road, Vidya Nagar, PO, Kasaragod, Kerala 671123",
      "lattitude": 12.51382323,
      "longitude": 75.02713173,
      "type": 7
    },
    {
      "name": "IOCL COCO Chengampalli, Salem-Kochi Highway",
      "state": "Tamil Nadu",
      "city": "Chengampalli",
      "address": "Salem - Kochi Hwy, Vadamugam Kangayapalayam, Tamil Nadu 638812",
      "lattitude": 11.213022,
      "longitude": 77.441968,
      "type": 7
    },
    {
      "name": "Hotel Casa Fedora, Lonavala",
      "state": "Maharashtra",
      "city": "Lonavala",
      "address": "Gate No 262/1 Beside Ashoka stambh, Kusgaon Lonavala Maharashtra",
      "lattitude": 18.738021,
      "longitude": 73.429905,
      "type": 7
    },
    {
      "name": "Hotel Vididhi, Kothagudam",
      "state": "Telangana",
      "city": "Madgulapally",
      "address": "Survey No. 173/2, 174/6, State Highway 2 NAM Expressway, Miryalaguda Highway Near Madugulapally Toll Plaza Kothagudam, Village, Madgulapally, Telangana 508247",
      "lattitude": 16.991031,
      "longitude": 79.44047,
      "type": 7
    },
    {
      "name": "Hyway Lounge u2013 Yelakala, NH 44 Rudrampeta",
      "state": "Andhra Pradesh",
      "city": "Anantapuram",
      "address": "Survey No 160/P, NH 44; Hyderabad u2013 Bangalore highway, Mandal Rudrampeta, Anantapuram, Andhra Pradesh 515 004",
      "lattitude": 14.657376,
      "longitude": 77.5814,
      "type": 7
    },
    {
      "name": "A 5 Hotel, Gudur",
      "state": "Andhra Pradesh",
      "city": "Gudur",
      "address": "NH16, near Tirumala Dairy, Gudur, Andhra Pradesh 524410",
      "lattitude": 14.085915,
      "longitude": 79.889563,
      "type": 7
    },
    {
      "name": "IOCL COCO u2013 Extoll College Br., Bhawadita Kalan",
      "state": "Madhya Pradesh",
      "city": "Bhopal",
      "address": "80/2/1/1/2 Bhawadiya Kalan, Bhopal 462026",
      "lattitude": 23.182404,
      "longitude": 77.432496,
      "type": 7
    },
    {
      "name": "Krishna Car, Kharagpur City Rd",
      "state": "West Bengal",
      "city": "Kharagpur",
      "address": "ARMAN BUILDING, Kharagpur City Rd, Inda, Kharagpur, West Bengal 721305",
      "lattitude": 22.367915,
      "longitude": 87.339354,
      "type": 7
    },
    {
      "name": "IOCL - SUJIT AUTOMOBILES, Bangalore-Kanyakumari Road",
      "state": "Maharashtra",
      "city": "Butibori",
      "address": "Bangalore - Salem - Madurai - Kanyakumari Road, Butibori, Maharashtra 441108",
      "lattitude": 20.92258656,
      "longitude": 78.99986387,
      "type": 7
    },
    {
      "name": "IOCL - MK Petroleum, Thazhe Chovva",
      "state": "Kerala",
      "city": "Kannur",
      "address": "Indian Oil Dealer, Bypass Road, Thazhe Chovva, Kannur - 670018",
      "lattitude": 11.860265,
      "longitude": 75.414409,
      "type": 7
    },
    {
      "name": "IOCL - Mayyazhi Petroleum, NH 66 MAin Road",
      "state": "Kerala",
      "city": "Mahe",
      "address": "Indian Oil Dealer, NH66 Main Road, Near RC Church, Mahe - 673310",
      "lattitude": 11.703759,
      "longitude": 75.535396,
      "type": 7
    },
    {
      "name": "IOCL - Top Fuels, Karanthakkad",
      "state": "Kerala",
      "city": "Kasargod",
      "address": "Indian Oil Dealer, Karanthakkad, Nr.Fire Station, Kasargod - 671121",
      "lattitude": 12.509436,
      "longitude": 74.986061,
      "type": 7
    },
    {
      "name": "IOCL Sigma enterprises, Kavumpuram",
      "state": "Kerala",
      "city": "Valanchery",
      "address": "NH 66, Manjeri, Kavumpuram, Kerala 676552",
      "lattitude": 10.89826,
      "longitude": 76.061104,
      "type": 7
    },
    {
      "name": "IOCL - Jyothi Agencies, Aswani Hospital Jn",
      "state": "Kerala",
      "city": "Thrissur",
      "address": "INDIAN OIL DEALER ASWANI HOSPITAL JN THRISSUR THRISSUR DISTRICT",
      "lattitude": 10.539266,
      "longitude": 76.215215,
      "type": 7
    },
    {
      "name": "IOCL - Sheron Travels, Thodupuzha",
      "state": "Kerala",
      "city": "Idukki",
      "address": "SH40, Thodupuzha, Kerala 685584",
      "lattitude": 9.892182,
      "longitude": 76.706886,
      "type": 7
    },
    {
      "name": "IOCL Chandra Fuels, SH 40 Kottankulangara",
      "state": "Kerala",
      "city": "Aleppey",
      "address": "SH40, Kottankulangara, Alappuzha, Kerala 688006",
      "lattitude": 9.510698,
      "longitude": 76.339209,
      "type": 7
    },
    {
      "name": "IOCL - Pattathuvila Fuels, Kadappakada",
      "state": "Kerala",
      "city": "Kollam",
      "address": "PATTATHUVILA FUELS INDIANOIL DEALER KADAPPAKADA P.O, Kollam, Kerala 691008",
      "lattitude": 8.894639,
      "longitude": 76.606423,
      "type": 7
    },
    {
      "name": "IOCL - Malayalam Fuels, Kodimatha",
      "state": "Kerala",
      "city": "Kottayam",
      "address": "Kodimatha, Kottayam, Kerala 686004",
      "lattitude": 9.573858,
      "longitude": 76.519282,
      "type": 7
    },
    {
      "name": "Harsolia Brothers, Sec 28 GIDC",
      "state": "Gujarat",
      "city": "Gandhinagar",
      "address": "Plot No. 301, Sector 28 GIDC, Sector 28, Gandhinagar, Gujarat 382028",
      "lattitude": 23.254196,
      "longitude": 72.659209,
      "type": 7
    },
    {
      "name": "Hotel Sanskruti , Trambakeshwar Rd",
      "state": "Maharashtra",
      "city": "Nashik",
      "address": "Trambakeshwar Rd, Belgaon Dhaga, Nashik, Maharashtra 422007",
      "lattitude": 19.973146,
      "longitude": 73.68105,
      "type": 7
    },
    {
      "name": "IOCL Manjalpur, GIDC Rd Manjalpur",
      "state": "Gujarat",
      "city": "Vadodara",
      "address": "312, GIDC Rd, Beside Om Pippadiya Hanumanji Mandir, Ghanshyam Nagar Society 2, Manjalpur, Vadodara, Gujarat 390011",
      "lattitude": 22.271793,
      "longitude": 73.190795,
      "type": 7
    },
    {
      "name": "IOCL Kosamba, NH 8 Mangrol",
      "state": "Gujarat",
      "city": "Surat",
      "address": "INDIAN OIL DEALER SURVEY NO. 617/A VILL:KOSAMBA NH-8 Tal: Mangrol, Surat-394120",
      "lattitude": 21.436471,
      "longitude": 72.970594,
      "type": 7
    },
    {
      "name": "IOCL - Citi Fuels, Virender Nagar",
      "state": "Delhi",
      "city": "Delhi",
      "address": "OPP.-VIRENDER NAGAR NEAR BHARATI COLLEGE NEW DELHI",
      "lattitude": 28.622486,
      "longitude": 77.09547,
      "type": 7
    },
    {
      "name": "IOCL - Gay Service Station, Azadpur",
      "state": "Delhi",
      "city": "Delhi",
      "address": "Near Azadpur, New Delhi,110033",
      "lattitude": 28.703312,
      "longitude": 77.181109,
      "type": 7
    },
    {
      "name": "Datson Electronics, Gorhe",
      "state": "Maharashtra",
      "city": "Pune",
      "address": "M/s. Datson Electronics pvt ltd Gat.No.30. Sinhagad Road , Gorhe Budruk .Tal- Haveli Next To Savali Resort , Off Sinhagad Road . Village Gorhe . Pune - 411025.",
      "lattitude": 18.423343,
      "longitude": 73.754875,
      "type": 7
    },
    {
      "name": "Ace Kudale Cycles, Manjri  Bk",
      "state": "Maharashtra",
      "city": "Pune",
      "address": "Manjri Bk, Pune, Maharashtra 412307",
      "lattitude": 18.4957722,
      "longitude": 73.97893593,
      "type": 7
    },
    {
      "name": "Ace Kudale Cycles, Manjri  Bk",
      "state": "Maharashtra",
      "city": "Pune",
      "address": "Manjri Bk, Pune, Maharashtra 412307",
      "lattitude": 18.4957722,
      "longitude": 73.97893593,
      "type": 7
    },
    {
      "name": "ARDEE MALL, Sec 52 Gurgaon",
      "state": "Haryana",
      "city": "Gurgaon",
      "address": "Ardee City Road, Sector 52, Gurgaon-122022",
      "lattitude": 28.444672,
      "longitude": 77.08082,
      "type": 7
    },
    {
      "name": "ARDEE MALL, Sec 52 Gurgaon",
      "state": "Haryana",
      "city": "Gurgaon",
      "address": "Ardee City Road, Sector 52, Gurgaon-122022",
      "lattitude": 28.444672,
      "longitude": 77.08082,
      "type": 7
    },
    {
      "name": "ARDEE MALL, Sec 52 Gurgaon",
      "state": "Haryana",
      "city": "Gurgaon",
      "address": "Ardee City Road, Sector 52, Gurgaon-122022",
      "lattitude": 28.444672,
      "longitude": 77.08082,
      "type": 7
    },
    {
      "name": "ARDEE MALL, Sec 52 Gurgaon",
      "state": "Haryana",
      "city": "Gurgaon",
      "address": "Ardee City Road, Sector 52, Gurgaon-122022",
      "lattitude": 28.444672,
      "longitude": 77.08082,
      "type": 7
    },
    {
      "name": "Keshva Motors Nahur West",
      "state": "Maharashtra",
      "city": "Mumbai",
      "address": "Shop Number 10 & 11 Marathon Max, Mulund Goregaon Link Rd, Nahur West, Mumbai, 400080",
      "lattitude": 19.1639849,
      "longitude": 72.9384197,
      "type": 7
    },
    {
      "name": "Brookfield, Powai",
      "state": "Maharashtra",
      "city": "Mumbai",
      "address": "Spectra, High St, Hiranandani Gardens, Powai, Mumbai, Maharashtra 400076",
      "lattitude": 19.11637,
      "longitude": 72.91086,
      "type": 7
    },
    {
      "name": "Brookfield, Powai",
      "state": "Maharashtra",
      "city": "Mumbai",
      "address": "Pay & Park, Central Ave, Hiranandani Gardens, Powai, Mumbai, Maharashtra 400076",
      "lattitude": 19.11644,
      "longitude": 72.90968,
      "type": 7
    },
    {
      "name": "TML- Sterling Motors , Renuka Nagar",
      "state": "Maharashtra",
      "city": "Nashik",
      "address": "PB No 033, Old Agra Rd, Gadkari Chowk, Renuka Nagar, Nashik, Maharashtra 422001",
      "lattitude": 19.9932,
      "longitude": 73.783133,
      "type": 7
    },
    {
      "name": "TML- Sterling Motors , Satpur",
      "state": "Maharashtra",
      "city": "Nashik",
      "address": "PB No 033, Old Agra Rd, Gadkari Chowk, Renuka Nagar, Nashik, Maharashtra 422001",
      "lattitude": 19.9932,
      "longitude": 73.783133,
      "type": 7
    },
    {
      "name": "IOCL Kevadia, Garudeshwar",
      "state": "Gujarat",
      "city": "Kevadia",
      "address": "Survey No u2013 422, 423 Village u2013 Kevadiya, Taluka u2013 Garudeshwar District u2013 Narmada, Gujarat, 393151",
      "lattitude": 21.885704,
      "longitude": 73.688136,
      "type": 7
    },
    {
      "name": "Jp's Food Court, Mulshi-Paud Road",
      "state": "Maharashtra",
      "city": "Valane",
      "address": "Mulshi-Paud Road, Near, Senapathy Bapat School, Valane, Maharashtra 412108",
      "lattitude": 18.528237,
      "longitude": 73.517504,
      "type": 7
    },
    {
      "name": "IOCL Karari Fuels, NH 44 Kishangarh",
      "state": "Punjab",
      "city": "Kisangarh",
      "address": "NH 44, Kishangarh chownk, Jalandhar - Pathankot Rd, Punjab 144301",
      "lattitude": 31.431348,
      "longitude": 75.620357,
      "type": 7
    },
    {
      "name": "Sagar Motors, Sector 5 Noida",
      "state": "Uttar Pradesh",
      "city": "Noida",
      "address": "B-123, Udhyog Marg, opp. PayTM building, B Block, Sector 5, Noida, Uttar Pradesh 201301",
      "lattitude": 28.59093,
      "longitude": 77.31969,
      "type": 7
    },
    {
      "name": "IOCL COCO u2013 Central Jail RO, Rambagh",
      "state": "Madhya Pradesh",
      "city": "Indore",
      "address": "Snehlataganj, Indore, Madhya Pradesh 452003",
      "lattitude": 22.335789,
      "longitude": 73.173794,
      "type": 7
    },
    {
      "name": "IOCL - Diamond Service Station, Sarada PAlly",
      "state": "West Bengal",
      "city": "Kolkata",
      "address": "Jadu Colony, Sarada Pally, Kolkata, West Bengal 700034",
      "lattitude": 22.489142,
      "longitude": 88.31441,
      "type": 7
    },
    {
      "name": "IOCL - PAUL CHOWDHURY ENTERPRISES, Barrackpore",
      "state": "West Bengal",
      "city": "Kolkata",
      "address": "Barrackpore Trunk Rd, Vivek Nagar, Titagarh, Kolkata, West Bengal 700119",
      "lattitude": 22.733685,
      "longitude": 88.373554,
      "type": 7
    },
    {
      "name": "Chandrani Enterprises, Bogra",
      "state": "West Bengal",
      "city": "Bardhaman",
      "address": "N/536 BOGRA CHATTI National Highway 2 Paschim Burdwan. , Bogra, Bardhaman- 713332",
      "lattitude": 23.663888,
      "longitude": 87.057978,
      "type": 7
    },
    {
      "name": "SS Motogen, Barwadda",
      "state": "Jharkhand",
      "city": "Dhanbad",
      "address": "NH 2 Kashitand, Nag Nagar, Barwadda, Dhanbad, Jharkhand 826004",
      "lattitude": 23.848551,
      "longitude": 86.441642,
      "type": 7
    },
    {
      "name": "Vilux Theater , Khadki Pune",
      "state": "Maharashtra",
      "city": "Pune",
      "address": "15, Maulodina Marg, Chikhalwadi, Khadki, Pune, Maharashtra 411003",
      "lattitude": 18.56535,
      "longitude": 73.85089,
      "type": 7
    },
    {
      "name": "IOCL COCO u2013 Rita Retail Outlet, Sarisha",
      "state": "West Bengal",
      "city": "Kolkata",
      "address": "Diamond Harbour Rd, Sarisha, West Bengal 743368",
      "lattitude": 22.256018,
      "longitude": 88.190831,
      "type": 7
    },
    {
      "name": "Rangeet Auto, NH 31",
      "state": "West Bengal",
      "city": "Coochbehar",
      "address": "31-NH CHOKCHOKA, OPPOSITE PROVA AUTOMOBILE, NEAR CHECK POST, COOCHBEHAR, COOCH BEHAR, WEST BENGAL, 736101",
      "lattitude": 26.323416,
      "longitude": 89.484913,
      "type": 7
    },
    {
      "name": "Tata Steel, Park Street",
      "state": "West Bengal",
      "city": "Kolkata",
      "address": "43, Jawaharlal Nehru Rd, Kankaria Estates, Park Street area, Kolkata, West Bengal 700071",
      "lattitude": 22.547449,
      "longitude": 88.349602,
      "type": 7
    },
    {
      "name": "Orange Auto, Erragadda",
      "state": "Telangana",
      "city": "Hyderabad",
      "address": "8-3-165, Beside Gokul Theatre, Erragadda, Hyderabad u2013 500018",
      "lattitude": 17.454398,
      "longitude": 78.434575,
      "type": 7
    },
    {
      "name": "Orange Auto, Karkhana",
      "state": "Telangana",
      "city": "Hyderabad",
      "address": "Plot No 54, Gayatri Westend Kakaguda, Karkhana, Secunderabad - 500015",
      "lattitude": 17.45848,
      "longitude": 78.5,
      "type": 7
    },
    {
      "name": "Orange Auto, Hafeezpet",
      "state": "Telangana",
      "city": "Hyderabad",
      "address": "16ABC, Mini Industrial estate, Hafeezpet, Hyderabad, Telangana 500049",
      "lattitude": 17.490308,
      "longitude": 78.354536,
      "type": 7
    },
    {
      "name": "KRAFT AUTO, Bokaro Industrial Area",
      "state": "Jharkhand",
      "city": "Bokaro",
      "address": "Plot no.- II/A 88, Phase - II,Bokaro Industrial Area,Bokaro - Jharkhand 827014",
      "lattitude": 23.66473,
      "longitude": 86.073024,
      "type": 7
    },
    {
      "name": "Shankar Motors, Deedarganj",
      "state": "Bihar",
      "city": "Patna",
      "address": "NH30 - Gaushala, Deedarganj Near Police Check Post, Patna, Bihar 800008",
      "lattitude": 25.571198,
      "longitude": 85.258655,
      "type": 7
    },
    {
      "name": "IOCL Excel Enterprises, Allipuram",
      "state": "Andhra Pradesh",
      "city": "Vizag",
      "address": "Leelamahal, Daba Garden Rd, Dolphin Area, Daba Gardens, Allipuram, Visakhapatnam, Andhra Pradesh 530020",
      "lattitude": 17.713223,
      "longitude": 83.298767,
      "type": 7
    },
    {
      "name": "KFC Jammu, Bari Brahmana",
      "state": "Jammu",
      "city": "Jammu",
      "address": "KfC Restaurants Sarore Adda Bridge, opposite bahu vaishno dhabha near Bari Brahmana, Jammu - 181133",
      "lattitude": 32.70532,
      "longitude": 74.88,
      "type": 7
    },
    {
      "name": "Four Points By Sheraton, Tonk Road",
      "state": "Rajasthan",
      "city": "Jaipur",
      "address": "No. 1, City Square, Vasundhara Colony, Tonk Road, Jaipur, Rajasthan, 302016",
      "lattitude": 26.8643722,
      "longitude": 75.7957703,
      "type": 7
    },
    {
      "name": "Four Points By Sheraton, Tonk Road",
      "state": "Rajasthan",
      "city": "Jaipur",
      "address": "No. 1, City Square, Vasundhara Colony, Tonk Road, Jaipur, Rajasthan, 302016",
      "lattitude": 26.8643722,
      "longitude": 75.7957703,
      "type": 7
    },
    {
      "name": "Four Points by Sheraton, Chennai OMR",
      "state": "Tamil Nadu",
      "city": "Chennai",
      "address": "Survey No 169, Plot 1B and 1A, Rajiv Gandhi Salai, Kumaran Nagar, Sholinganallur, Chennai-600119,Four Points 1, Semmancheri, Chennai, Tamil Nadu 600119",
      "lattitude": 12.875613,
      "longitude": 80.227372,
      "type": 7
    },
    {
      "name": "IOCL Indra Automobiles, Ashiyana",
      "state": "Uttar Pradesh",
      "city": "Lucknow",
      "address": "Sector I, Sector M, Ashiyana, Lucknow, Uttar Pradesh 226012",
      "lattitude": 26.7872939,
      "longitude": 80.9122196,
      "type": 7
    },
    {
      "name": "Lexican Motors, Matigara",
      "state": "West Bengal",
      "city": "Siliguri",
      "address": "Reliance Industrial Consortium Ltd. NH 31 Baniakhari, Kusumnagar Landmark, beside Barsana Hotel, Matigara, Siliguri, West Bengal 734010",
      "lattitude": 26.729623,
      "longitude": 88.373903,
      "type": 7
    },
    {
      "name": "Motel Mamalla, SH 49",
      "state": "Tamil Nadu",
      "city": "Mahabalipuram",
      "address": "Motel Mamalla No.77, East Coast Road, SH 49, Mahabalipuram, Tamil Nadu 603104",
      "lattitude": 12.6325138,
      "longitude": 80.1958391,
      "type": 7
    },
    {
      "name": "Pumpkin Tales, Alwarpet",
      "state": "Tamil Nadu",
      "city": "Chennai",
      "address": "37, 20, Bheemanna Garden St, Alwarpet, Chennai, Tamil Nadu 600018",
      "lattitude": 13.033655,
      "longitude": 80.255285,
      "type": 7
    },
    {
      "name": "Chowk Highway Service Centre, Old Mum-Pune highway",
      "state": "Maharashtra",
      "city": "Chouk",
      "address": "Nadhal, NH 48, Chouk,, Old Mumbai - Pune Hwy, Maharashtra 410206",
      "lattitude": 18.90173,
      "longitude": 73.23436,
      "type": 7
    },
    {
      "name": "Blue Moon Highway Restaurant, Bangalore-Hyderabad Highway",
      "state": "Andhra Pradesh",
      "city": "Anantapuram",
      "address": "NH 44; Bangalore - Hyderabad  highway, 116/1B, Midthuru, Peddavaduguru, Anantapuram, Andhra Pradesh 515405",
      "lattitude": 15.02395,
      "longitude": 77.620628,
      "type": 7
    },
    {
      "name": "Dion Automotives, Ankuli Bye Pass Road",
      "state": "Odisha",
      "city": "Berhampur",
      "address": "Ankuli Bye Pass Road, Berhampur, Ganjam Dist ODISHA 760010",
      "lattitude": 19.298988,
      "longitude": 84.831762,
      "type": 7
    },
    {
      "name": "Lodha Belair, Jogeshwari West",
      "state": "Maharashtra",
      "city": "Mumbai",
      "address": "Patel Estate Road, Off, Western Express Hwy, Momin Nagar, Jogeshwari West, Mumbai, Maharashtra 400102",
      "lattitude": 19.1418,
      "longitude": 72.8454,
      "type": 7
    },
    {
      "name": "Lodha Belair, Jogeshwari West",
      "state": "Maharashtra",
      "city": "Mumbai",
      "address": "Patel Estate Road, Off, Western Express Hwy, Momin Nagar, Jogeshwari West, Mumbai, Maharashtra 400102",
      "lattitude": 19.1418,
      "longitude": 72.8454,
      "type": 7
    },
    {
      "name": "Hyd Metro - Miyapur - Calvari Church Side u2013 Service Road",
      "state": "Telangana",
      "city": "Hyderabad",
      "address": "IDPl Employees Colony, Hafeezpet, Hyderabad, Telangana 500049",
      "lattitude": 17.4968,
      "longitude": 78.3758,
      "type": 7
    },
    {
      "name": "Kun Hyundai",
      "state": "Telangana",
      "city": "Hyderabad",
      "address": "H No. - 11-4-649/A, AC Guards, LAKADIKAPUL, Khairatabad-500004",
      "lattitude": 17.4029,
      "longitude": 78.4601,
      "type": 7
    },
    {
      "name": "DPM Hyundai",
      "state": "Uttarakhand",
      "city": "Dehradun",
      "address": "DDPM tower, Haridwar Bye Pass Road, Ajabpur Khurd, Dehradun-248001",
      "lattitude": 30.2876,
      "longitude": 78.0328,
      "type": 7
    },
    {
      "name": "Sandipa Hotel & Restaurant, Kolaghat",
      "state": "WestBengal",
      "city": "Kolaghat",
      "address": "Pump Para,Bardabarh,Kolaghat,Purba Medinipore-721151",
      "lattitude": 22.4338,
      "longitude": 87.8262,
      "type": 7
    },
    {
      "name": "Sandipa Hotel & Restaurant, Kolaghat",
      "state": "WestBengal",
      "city": "Kolaghat",
      "address": "Pump Para,Bardabarh,Kolaghat,Purba Medinipore-721151",
      "lattitude": 22.4338,
      "longitude": 87.8262,
      "type": 7
    },
    {
      "name": "Hotel Piccolo, Boarding Road",
      "state": "Assam",
      "city": "Sivasagar",
      "address": "Boarding Road, Sivasagar-785640",
      "lattitude": 26.9834,
      "longitude": 94.6342,
      "type": 7
    },
    {
      "name": "Hotel Piccolo, Boarding Road",
      "state": "Assam",
      "city": "Sivasagar",
      "address": "Boarding Road, Sivasagar-785640",
      "lattitude": 26.9834,
      "longitude": 94.6342,
      "type": 7
    },
    {
      "name": "Amritara The Poovath Heritage, Fort Kochi",
      "state": "Kerala",
      "city": "Kochi",
      "address": "1, 246, Dutch Cemetery Rd, Fort Kochi, Kochi, Kerala 682001",
      "lattitude": 9.9646,
      "longitude": 76.2387,
      "type": 7
    },
    {
      "name": "Amritara The Poovath Heritage, Fort Kochi",
      "state": "Kerala",
      "city": "Kochi",
      "address": "1, 246, Dutch Cemetery Rd, Fort Kochi, Kochi, Kerala 682001",
      "lattitude": 9.9646,
      "longitude": 76.2387,
      "type": 7
    },
    {
      "name": "Miramar Resort, Bidhannagar",
      "state": "WestBengal",
      "city": "Siliguri",
      "address": "Miramar Resort, Bidhannagar, Jagannathpur-734426",
      "lattitude": 26.4775,
      "longitude": 88.2372,
      "type": 7
    },
    {
      "name": "Miramar Resort, Bidhannagar",
      "state": "WestBengal",
      "city": "Siliguri",
      "address": "Miramar Resort, Bidhannagar, Jagannathpur-734426",
      "lattitude": 26.4775,
      "longitude": 88.2372,
      "type": 7
    },
    {
      "name": "Nipobithi Bar Cum Resort, Nadia",
      "state": "WestBengal",
      "city": "Nadia",
      "address": "Bholadanga, Bangoria, Nakashipara, Nadia,WB-741126",
      "lattitude": 23.5625,
      "longitude": 88.4189,
      "type": 7
    },
    {
      "name": "Nipobithi Bar Cum Resort, Nadia",
      "state": "WestBengal",
      "city": "Nadia",
      "address": "Bholadanga, Bangoria, Nakashipara, Nadia,WB-741126",
      "lattitude": 23.5625,
      "longitude": 88.4189,
      "type": 7
    },
    {
      "name": "Ideal dealers PV Pvt Ltd",
      "state": "Bihar",
      "city": "Muzaffarpur",
      "address": "Showroom & workshop, vill: sakri saraiya, P:S: kudhni, Muzaffrpur, Bihar-844127",
      "lattitude": 26.0538,
      "longitude": 85.3585,
      "type": 7
    },
    {
      "name": "R R Automobiles, Rewa",
      "state": "Madhya Pradesh",
      "city": "Rewa",
      "address": "NH-7 Satna Maihar Road Dhekaha Rewa, Madhya Pradesh, 486001",
      "lattitude": 24.5428,
      "longitude": 81.2724,
      "type": 7
    },
    {
      "name": "Nyati Estate, Mohammadwadi",
      "state": "Maharashtra",
      "city": "Pune",
      "address": "Nyati Estate Co-operative Housing Society Ltd, Mohammadwadi, Pune 411060",
      "lattitude": 18.4662,
      "longitude": 73.9209,
      "type": 7
    },
    {
      "name": "Nyati Estate, Mohammadwadi",
      "state": "Maharashtra",
      "city": "Pune",
      "address": "Nyati Estate Co-operative Housing Society Ltd, Mohammadwadi, Pune 411060",
      "lattitude": 18.4662,
      "longitude": 73.9209,
      "type": 7
    },
    {
      "name": "Sayaji Hotels Limited, Vijay Nagar",
      "state": "Madhya Pradesh",
      "city": "Indore",
      "address": "H-1 Scheme NO. 54 Vijay Nagar, Indore, Madhya Pradesh, 452010",
      "lattitude": 22.752,
      "longitude": 75.8894,
      "type": 7
    },
    {
      "name": "Sayaji Hotels Limited, Vijay Nagar",
      "state": "Madhya Pradesh",
      "city": "Indore",
      "address": "H-1 Scheme NO. 54 Vijay Nagar, Indore, Madhya Pradesh, 452010",
      "lattitude": 22.752,
      "longitude": 75.8894,
      "type": 7
    },
    {
      "name": "Sayaji Hotels Limited, Vijay Nagar",
      "state": "Madhya Pradesh",
      "city": "Indore",
      "address": "H-1 Scheme NO. 54 Vijay Nagar, Indore, Madhya Pradesh, 452010",
      "lattitude": 22.752,
      "longitude": 75.8894,
      "type": 7
    },
    {
      "name": "Atmosphere Phase 1 CHSL, Link Road",
      "state": "Maharashtra",
      "city": "Mumbai",
      "address": "Mulund Goregaon Link Road, Mulund West Mumbai 400080",
      "lattitude": 19.1586,
      "longitude": 72.9473,
      "type": 7
    },
    {
      "name": "Atmosphere Phase 1 CHSL, Link Road",
      "state": "Maharashtra",
      "city": "Mumbai",
      "address": "Mulund Goregaon Link Road, Mulund West Mumbai 400080",
      "lattitude": 19.1586,
      "longitude": 72.9473,
      "type": 7
    },
    {
      "name": "Atmosphere Phase 1 CHSL, Link Road",
      "state": "Maharashtra",
      "city": "Mumbai",
      "address": "Mulund Goregaon Link Road, Mulund West Mumbai 400080",
      "lattitude": 19.1586,
      "longitude": 72.9473,
      "type": 7
    },
    {
      "name": "Atmosphere Phase 1 CHSL, Link Road",
      "state": "Maharashtra",
      "city": "Mumbai",
      "address": "Mulund Goregaon Link Road, Mulund West Mumbai 400080",
      "lattitude": 19.1586,
      "longitude": 72.9473,
      "type": 7
    },
    {
      "name": "Aurum Platz Condominium, Marine Drive",
      "state": "Maharashtra",
      "city": "Mumbai",
      "address": "CS 406, 7 Marine Drive, Babulnath X Road, CHowpaaty Mumbai 400007",
      "lattitude": 18.9572,
      "longitude": 72.8103,
      "type": 7
    },
    {
      "name": "Dadar Neelkanth Apartments CHSL, Dadar East",
      "state": "Maharashtra",
      "city": "Mumbai",
      "address": "Gokulnath Pasta Road, Dadar East, Mumbai 400014",
      "lattitude": 19.0142,
      "longitude": 72.8459,
      "type": 7
    },
    {
      "name": "COMCO- Grand Millenium, Satellite",
      "state": "Gujarat",
      "city": "Ahmedabad",
      "address": "Sector 2, Jodhpur Village, Ahmedabad Gujarat 380015",
      "lattitude": 23.0172,
      "longitude": 72.5188,
      "type": 7
    },
    {
      "name": "COMCO- Nikol",
      "state": "Gujarat",
      "city": "Ahmedabad",
      "address": "Plot.no.85/1,F.P.no.85,T.P.S No.111,Nikol, Ahmedabad Gujarat 382345",
      "lattitude": 23.0348,
      "longitude": 72.6757,
      "type": 7
    },
    {
      "name": "R City Mall, Ghatkopar",
      "state": "Maharashtra",
      "city": "Mumbai",
      "address": "LBS Road, Amrut Nagar, Ghatkoapr West, Mumbai 400086",
      "lattitude": 19.0997,
      "longitude": 72.9167,
      "type": 7
    },
    {
      "name": "R City Mall, Ghatkopar",
      "state": "Maharashtra",
      "city": "Mumbai",
      "address": "LBS Road, Amrut Nagar, Ghatkoapr West, Mumbai 400086",
      "lattitude": 19.0997,
      "longitude": 72.9167,
      "type": 7
    },
    {
      "name": "R City Mall, Ghatkopar",
      "state": "Maharashtra",
      "city": "Mumbai",
      "address": "LBS Road, Amrut Nagar, Ghatkoapr West, Mumbai 400086",
      "lattitude": 19.0997,
      "longitude": 72.9167,
      "type": 7
    },
    {
      "name": "R City Mall, Ghatkopar",
      "state": "Maharashtra",
      "city": "Mumbai",
      "address": "LBS Road, Amrut Nagar, Ghatkoapr West, Mumbai 400086",
      "lattitude": 19.0997,
      "longitude": 72.9167,
      "type": 7
    },
    {
      "name": "Raheja Imperia CHSL, Lower Parel West",
      "state": "Maharashtra",
      "city": "Mumbai",
      "address": "Shankar Rao Naram Path, Lower Parel West, Mumbai 400013",
      "lattitude": 19.0024,
      "longitude": 72.8253,
      "type": 7
    },
    {
      "name": "Raheja Imperia CHSL, Lower Parel West",
      "state": "Maharashtra",
      "city": "Mumbai",
      "address": "Shankar Rao Naram Path, Lower Parel West, Mumbai 400013",
      "lattitude": 19.0024,
      "longitude": 72.8253,
      "type": 7
    },
    {
      "name": "Ginger Vastrapur, Drive In Road",
      "state": "Gujarat",
      "city": "Ahmedabad",
      "address": "Behind Himalaya Mall, Drive In Road, Ahmedabad - 380015",
      "lattitude": 23.0463,
      "longitude": 72.5307,
      "type": 7
    },
    {
      "name": "Westside, Ellisbridge",
      "state": "Gujarat",
      "city": "Ahmedabad",
      "address": "Ground Floor, Abhijeet V, Netaji Rd Ellisbridge Opp. Mayor Bungalow, Ellisbridge, Ahmedabad, Gujarat 380006",
      "lattitude": 23.0294,
      "longitude": 72.5614,
      "type": 7
    },
    {
      "name": "Adishakti, Veeranpalya",
      "state": "Karnataka",
      "city": "Banglore",
      "address": "#56, Opposite Lumbini Gardens, Veeranna Palya Ring Road , Veeranna Palya, Arabic College Post, Bengaluru, Karnataka - 560045",
      "lattitude": 13.0428,
      "longitude": 77.6093,
      "type": 7
    },
    {
      "name": "AB Infra Limited, old MIDC",
      "state": "Karnataka",
      "city": "Banglore",
      "address": "No.46, 10th Cross Rd, West of Chord Road 2nd Stage, West of Chord Road, IInd Stage, Basaveshwar Nagar, Bengaluru, Karnataka 560079",
      "lattitude": 12.9993,
      "longitude": 77.5496,
      "type": 7
    },
    {
      "name": "Key Motors, Kanakapura",
      "state": "Karnataka",
      "city": "Banglore",
      "address": "No 71/1A & 71/7, Jaraganahalli Village Opp Temple Tree Apartment, Kanakapura Rd, Manjunath Garden, JP Nagar Phase 6, J. P. Nagar, Bengaluru, Karnataka 560078",
      "lattitude": 12.9039,
      "longitude": 77.5735,
      "type": 7
    },
    {
      "name": "Prerna Motors, Kudlugate",
      "state": "Karnataka",
      "city": "Banglore",
      "address": "NO.55, HOSUR MAIN ROAD, KUDLUGATE, HONGASANDRA, NEXT TO OZONE TECH PARK, Kudlu Gate, Garebhavipalya, Garvebhavi Palya, Bengaluru, Karnataka 560068",
      "lattitude": 12.8908,
      "longitude": 77.6382,
      "type": 7
    },
    {
      "name": "Kropex, Electronics City",
      "state": "Karnataka",
      "city": "Banglore",
      "address": "No 49/1, Hosur Main Road, Singasandra, Bengaluru Urban, Bengaluru, Karnataka - 560068",
      "lattitude": 12.872,
      "longitude": 77.6511,
      "type": 7
    },
    {
      "name": "KHT, Whitefield",
      "state": "Karnataka",
      "city": "Banglore",
      "address": "No. 736, Vijayalakshmi Square, Kundalahalli Main Road, , Bengaluru, Karnataka - 560066",
      "lattitude": 12.9668,
      "longitude": 77.7166,
      "type": 7
    },
    {
      "name": "Tanishq, Koramangala",
      "state": "Karnataka",
      "city": "Banglore",
      "address": "#3, 17th Main, 5th Block, 100 Feet Road Opp Canara Bank, KHB Colony, 5th Block, Koramangala, Bengaluru, Karnataka 560034",
      "lattitude": 12.9345,
      "longitude": 77.6235,
      "type": 7
    },
    {
      "name": "Tanishq, Dickenson Road",
      "state": "Karnataka",
      "city": "Banglore",
      "address": "Next To Manipal Centre, The Estate, Dickenson Rd, Yellappa Garden, Yellappa Chetty Layout, Sivanchetti Gardens, Bengaluru, Karnataka 560042",
      "lattitude": 12.9744,
      "longitude": 77.6144,
      "type": 7
    },
    {
      "name": "Ginger Vadapalani, NGO Colony",
      "state": "Tamil Nadu",
      "city": "Chennai",
      "address": "61, Inner Ring Rd, Thiru Nagar Colony, NGO Colony, Vadapalani, Chennai, Tamil Nadu 600026",
      "lattitude": 13.0565,
      "longitude": 80.2112,
      "type": 7
    },
    {
      "name": "Tejaswi Motors, Madhapur",
      "state": "Telangana",
      "city": "Hyderabad",
      "address": "Plot No. 4/14, Opp. Cyber Towers, KPHB Road, Madhapur, Hyderabad, Telangana - 500081",
      "lattitude": 17.4535,
      "longitude": 78.3833,
      "type": 7
    },
    {
      "name": "Westside, Somajiguda",
      "state": "Telangana",
      "city": "Hyderabad",
      "address": "PLOT NO.6-3, Kmc Retail Mall, CIRCLE, 1112, near KIRTILAL JEWELLERS, Somajiguda, Hyderabad, Telangana 500082",
      "lattitude": 17.4226,
      "longitude": 78.4614,
      "type": 7
    },
    {
      "name": "Select Cars, Alkapuri",
      "state": "Telangana",
      "city": "Hyderabad",
      "address": "ALKAPURI X ROADS, Nagole, Hyderabad, Telangana 500068",
      "lattitude": 17.3649,
      "longitude": 78.5575,
      "type": 7
    },